ID,Station Name,Total Docks,Latitude,Longitude
1.59405E+18,Troy St & Jackson Blvd,9,41.877505,-87.70485
641,Central Park Ave & Bloomingdale Ave,11,41.914166,-87.716755
1.68353E+18,Public Rack - Cornell Ave & 87th Pl,1,41.73688127,-87.58314552
367,Racine Ave & 35th St,15,41.83068857,-87.65621066
1.67385E+18,Public Rack - Francisco Ave & Touhy Ave,2,42.011865,-87.701317
648,Carpenter St & 63rd St,7,41.77987,-87.650919
427,Cottage Grove Ave & 63rd St,15,41.78053094,-87.6059702
758,Lincoln Ave & Roscoe St*,16,41.94335025,-87.67066777
644,Western Ave & Fillmore St,11,41.868563,-87.686234
503,St. Louis Ave & Fullerton Ave,15,41.9248156,-87.71449506
1.67385E+18,Public Rack - California Ave & Touhy Ave - midblock,1,42.012207,-87.700474
643,Smith Park,15,41.892048,-87.689397
640,Bernard St & Elston Ave,11,41.949923,-87.713949
637,Wood St & Chicago Ave,15,41.895634,-87.672069
761,Bissell St & Armitage Ave*,16,41.91829556,-87.65218332
718,Ewing Ave & Burnham Greenway,11,41.71274876,-87.53481388
690,State St & 95th St,15,41.7218499,-87.6228544
566,Damen Ave & 74th St,11,41.75927404,-87.67363429
1.67385E+18,Public Rack - California Ave & Touhy Ave - SW,1,42.011867,-87.700407
650,Eggleston Ave & 69th St,11,41.768898,-87.635876
1.67725E+18,Public Rack - Sawyer Ave & Bryn Mawr Ave - SW,1,41.982879,-87.710534
674,Michigan Ave & 71st St,7,41.765286,-87.621748
1.4365E+18,N Clark St & W Elm St,4,41.902901,-87.631282
664,Leavitt St & Belmont Ave,15,41.939354,-87.683282
656,Damen Ave & Walnut (Lake) St,15,41.885951,-87.677009
1.5637E+18,Sayre & Diversey,9,41.9310084,-87.8010646
658,Leavitt St & Division St,15,41.902997,-87.683825
1.4365E+18,W Armitage Ave & N Sheffield Ave,8,41.917805,-87.653449
649,Stewart Ave & 63rd St,11,41.779835,-87.634774
632,Clark St & Newport St,15,41.94454,-87.654678
1.4365E+18,W Oakdale Ave & N Broadway,6,41.935581,-87.644042
654,Racine Ave & Washington Blvd,11,41.883073,-87.656952
446,Western & 28th - Velasquez Institute Vaccination Site,11,41.84151771,-87.68513144
1.44864E+18,S Aberdeen St & W 106th St,3,41.701217,-87.649345
1.5637E+18,Kostner Ave & Wrightwood Ave,9,41.9279399,-87.7359921
192,Canal St & Adams St,47,41.879255,-87.639904
759,Wilton Ave & Diversey Pkwy*,32,41.932418,-87.652705
763,Morgan St & Lake St*,20,41.88549171,-87.65228927
1.4365E+18,N Paulina St & Lincoln Ave,6,41.943838,-87.671469
1.67385E+18,Public Rack - Rockwell Ave & Touhy Ave,2,42.012344,-87.695383
1.4365E+18,N Sheffield Ave & W Wellington Ave,6,41.9362263,-87.6537676
1.67419E+18,Public Rack - 2302 S Pulaski Rd,1,41.849437,-87.724879
1.67419E+18,Public Rack - Al Raby School,3,41.886167,-87.714711
1.57111E+18,Roscoe & Harlem,9,41.9416062,-87.8072964
1.67419E+18,Public Rack - Avers Ave & Irving Park Rd,2,41.953789,-87.724161
1.57111E+18,Oketo Ave & Addison St,9,41.9449659,-87.8118989
1.5637E+18,Kilbourn & Belden,9,41.922352,-87.739024
1.57595E+18,North Ave & New England Ave,9,41.9092204,-87.7971406
1.67419E+18,Public Rack - Avers Ave & Ogden Ave,2,41.852642,-87.72103
1.67419E+18,Public Rack - Avondale Ave & Addison St,4,41.94655,-87.719827
1.67419E+18,Public Rack - California Ave & Cortez St,2,41.900105,-87.696817
1.67419E+18,Public Rack - California Ave & Devon Ave - NE,1,41.99826,-87.699481
1.67419E+18,Public Rack - California Ave & Devon Ave - NW,2,41.998481,-87.69985
1.67419E+18,Public Rack - California Ave & Ogden Ave,1,41.8608706,-87.695681
1.67419E+18,Public Rack - Central Park Ave & Fillmore St,1,41.8680617,-87.7153897
1.67419E+18,Public Rack - Central Park Ave & Ogden Ave,3,41.8543385,-87.7151584
1.67419E+18,Public Rack - Chase Ave & Touhy Ave - NE,4,42.014539,-87.6901359
1.67419E+18,Public Rack - Chase Ave & Touhy Ave - NW,1,42.014271,-87.690408
1.67419E+18,Public Rack - Chopin Park,1,41.942675,-87.761899
1.67419E+18,Public Rack - Christiana Ave & Belmont Ave,6,41.93917,-87.71169
1.67419E+18,Public Rack - Cicero Ave & Altgeld St,2,41.925734,-87.746414
1.67419E+18,Public Rack - Cicero Ave & Cortland St - midblock,1,41.91582,-87.746074
1.67419E+18,Public Rack - Cicero Ave & Le Moyne St - midblock,1,41.906919,-87.74623
1.67419E+18,Public Rack - Cicero Ave & North Ave,1,41.909329,-87.745838
1.67419E+18,Public Rack - Cicero Ave & Roscoe St,1,41.9424235,-87.74713
1.67419E+18,Public Rack - Cicero Ave & Wellington Ave,2,41.935779,-87.746581
1.67419E+18,Public Rack - Cicero Ave & Wrightwood Ave,4,41.927944,-87.7466394
1.67419E+18,Public Rack - Eli Whitney Public School,1,41.840249,-87.725472
1.67419E+18,Public Rack - Franklin Park,2,41.861493,-87.733404
1.67419E+18,Public Rack - Hamlin Ave & Chicago Ave,1,41.895201,-87.721541
1.67419E+18,Public Rack - Hamlin Ave & Fullerton Ave,2,41.924319,-87.721446
1.67419E+18,Public Rack - Hamlin Ave & Grand Ave,3,41.903738,-87.720287
1.67419E+18,Public Rack - Hamlin Ave & Montrose Ave,3,41.961216,-87.722416
1.67419E+18,Public Rack - Karlov Ave & 26th St,1,41.844287,-87.727078
1.67419E+18,Public Rack - Karlov Ave & Kamerling Ave,2,41.905621,-87.728636
1.67419E+18,Public Rack - Kedvale Ave & Avondale Ave,2,41.952874,-87.731229
1.67419E+18,Public Rack - Kedzie Ave & Argyle St,2,41.972097,-87.708572
1.67419E+18,Public Rack - Kedzie Ave & Arthington St,1,41.8700949,-87.7062429
1.67419E+18,Public Rack - Keeler Ave & 26th St,1,41.844058,-87.729873
1.67419E+18,Public Rack - Kenton Ave & Palmer St,1,41.9206781,-87.7419523
1.67419E+18,Public Rack - Keystone Ave & Irving Park Rd,2,41.953449,-87.729635
1.67419E+18,Public Rack - Keystone Ave & North Ave,1,41.909623,-87.727951
1.44864E+18,S Wentworth Ave & W 111th St,5,41.6926176,-87.6280518
1.67419E+18,Public Rack - Kimball Ave & Carmen Ave,3,41.973896,-87.713297
1.67419E+18,Public Rack - Kostner Ave & North Ave,2,41.908816,-87.736463
1.67419E+18,Public Rack - Laramie Ave & Belmont Ave,2,41.9386855,-87.75563
1.67419E+18,Public Rack - Laramie Ave & Fullerton Ave,2,41.9240754,-87.7568589
1.67419E+18,Public Rack - Laramie Ave & Grand Ave,1,41.917002,-87.755972
1.67419E+18,Public Rack - Laramie Ave & Warwick Ave,5,41.948812,-87.75713
1.57111E+18,Harlem Ave & Grace St,9,41.9488531,-87.806938
1.67419E+18,Public Rack - Lawndale Ave & Diversey Ave,1,41.931702,-87.719254
1.67419E+18,Public Rack - Lawndale Ave & Polk St,2,41.8707651,-87.7183735
1.67419E+18,Public Rack - Legler Regional Library,2,41.879312,-87.725428
1.67419E+18,Public Rack - Linder Ave & Belmont Ave,2,41.938743,-87.763298
1.67419E+18,Public Rack - Lorel Ave & Chicago Ave,2,41.89503,-87.759917
1.67419E+18,Public Rack - Lowell Ave & Elston Ave,1,41.96614,-87.737
716,Eberhart Ave & 131st St,15,41.65841315,-87.6107109
1.59405E+18,California & 16th St,9,41.859228,-87.695562
1.44864E+18,S Michigan Ave & E 118th St,6,41.679804,-87.620843
1.56101E+18,Central Park Ave & Douglas Blvd,9,41.862355,-87.7157109
1.56101E+18,Lawndale Ave & 16th St,9,41.8591606,-87.7176965
1.4365E+18,N Damen Ave & W Chicago Ave,6,41.895809,-87.678519
1.67725E+18,Public Rack - Maryland Ave & 87th ST,1,41.736995,-87.603968
1.44864E+18,Woodlawn & 103rd - Olive Harvey Vaccination Site,10,41.707338,-87.59399
1.57595E+18,Major Ave & Bloomingdale Ave,9,41.9125923,-87.7686995
1.56101E+18,Tripp Ave & 15th St,9,41.860777,-87.7313639
1.56101E+18,Spaulding Ave & 16th St,9,41.85892,-87.707963
1.44864E+18,Steelworkers Park,6,41.738246,-87.531067
1.44864E+18,Maryland Ave & 104th St,10,41.705588,-87.602938
1.44864E+18,Indiana Ave & 133rd St,6,41.653564,-87.617054
1.67725E+18,Public Rack - 532 E 43rd St,1,41.816847,-87.613294
1.62272E+18,La Villita Park (Albany/30th),9,41.8392528,-87.7020207
1.67725E+18,Public Rack - Kostner Ave & Armitage Ave,1,41.917211,-87.736136
1.44864E+18,W 103rd St & S Avers Ave,10,41.705846,-87.717074
1.4365E+18,W Washington Blvd & N Peoria St,6,41.883043,-87.649931
1.4365E+18,N Carpenter St & W Lake St,6,41.885586,-87.6531893
1.4365E+18,N Green St & W Lake St,8,41.885579,-87.648484
1.4365E+18,N Southport Ave & W Newport Ave,8,41.944019,-87.663975
1.5637E+18,Lamon Ave & Belmont Ave,9,41.9390108,-87.7492834
1.56101E+18,Harding Ave & 26th St,9,41.8444715,-87.7232647
1.50021E+18,Ping Tom Park (East),6,41.8579886,-87.6319447
1.56101E+18,Tripp Ave & 31st St,9,41.836966,-87.730502
1.56101E+18,Kildare Ave & 26th St,9,41.8442315,-87.7321534
1.5637E+18,Mason Ave & Belmont Ave,9,41.9383682,-87.7725029
1.52169E+18,Hampden Ct & Diversey Ave,8,41.9325593,-87.6423847
1.52169E+18,Damen Ave & Wabansia Ave,8,41.9122813,-87.6773211
1.52168E+18,Kedzie Ave & 104th St,8,41.7037764,-87.7013952
1.5637E+18,Lavergne & Fullerton,9,41.923982,-87.7511643
1.67725E+18,Public Rack - Corliss Ave & 133rd St,5,41.653138,-87.601057
1.67725E+18,Public Rack - Harvard Ave & 119th St,1,41.678227,-87.630775
1.67725E+18,Public Rack - Throop St & 109th Pl,4,41.694944,-87.654377
1.67725E+18,Public Rack - Racine Ave & 109th Pl,1,41.694835,-87.653041
1.67725E+18,Public Rack - Greenwood Ave & 87th St,1,41.736263,-87.596634
1.5637E+18,Cicero Ave & Grace St,6,41.94973,-87.7469526
1.5637E+18,Long Ave & Belden Ave,9,41.9227049,-87.760954
1.56101E+18,Pulaski Rd & 21st St,9,41.853452,-87.724541
1.5637E+18,Kilpatrick Ave & Parker Ave,9,41.930736,-87.744082
1.56101E+18,Homan Ave & Fillmore St,9,41.868114,-87.7109257
1.5637E+18,Long Ave & Belmont Ave,9,41.9383071,-87.761663
1.5637E+18,Meade Ave & Diversey Ave,9,41.9309018,-87.7784686
1.5637E+18,Parkside Ave & Armitage Ave,9,41.9169054,-87.7671806
1.5637E+18,Central Ave & Parker Ave,9,41.9301785,-87.7661217
1.56101E+18,Keeler Ave & Roosevelt Rd,9,41.866402,-87.7300171
1.5637E+18,Mulligan Ave & Wellington Ave,9,41.9347409,-87.7844017
1.57595E+18,Menard Ave & Division St,9,41.902269,-87.7704807
1.57111E+18,Meade Ave & Addison St,9,41.9459174,-87.7788824
1.5637E+18,Lockwood Ave & Wrightwood Ave,9,41.9278148,-87.7583757
1.5637E+18,Oak Park & Wellington,9,41.934586,-87.7959613
1.5637E+18,Lamon Ave & Armitage Ave,9,41.9166701,-87.7494873
1.57111E+18,Narragansett Ave & School St,9,41.940128,-87.7864806
1.57111E+18,Central Ave & Roscoe St,9,41.942258,-87.7669331
1.57111E+18,Orange & Addison,9,41.9448846,-87.82423
1.5637E+18,Fullerton & Monitor,9,41.9237918,-87.7723116
1.62272E+18,Mayfield & Roosevelt Rd,9,41.8658158,-87.7717805
655,Hoyne Ave & Balmoral Ave,15,41.979851,-87.681932
194,Wabash Ave & Wacker Pl,19,41.886875,-87.62603
1.67725E+18,Public Rack - Kildare Ave & Division Ave,1,41.902405,-87.732699
1.67725E+18,Public Rack - Cottage Grove Ave & 89th Pl,1,41.731767,-87.604899
1.67725E+18,Public Rack - Drexel Ave & 87th St,1,41.736783,-87.602241
1.67725E+18,Public Rack - Laflin St & 79th St,1,41.750326,-87.66168
1.67725E+18,Public Rack - Halsted St & 80th St,1,41.748175,-87.644238
1.67725E+18,Public Rack - Marquette Ave & 83rd St,1,41.74476,-87.558624
1.67725E+18,Public Rack - Prairie Ave & Garfield Blvd S,10,41.794344,-87.619062
1.56101E+18,Lawndale Ave & 30th St,12,41.8389124,-87.7168955
1.57595E+18,Public Rack - Kildare Ave & Division St,9,41.902393,-87.733598
1.57111E+18,Long & Irving Park,9,41.953038,-87.7621632
1.5637E+18,Kilbourn & Roscoe,9,41.9427319,-87.7395332
1.57595E+18,Lavergne Ave & Division St,9,41.902513,-87.750869
1.57111E+18,Harlem & Irving Park,9,41.9532568,-87.8071434
1.5637E+18,Narragansett & Wrightwood,9,41.927294,-87.7852027
1.5637E+18,Kenosha & Wellington,9,41.9344421,-87.7337799
1.57595E+18,Nordica & Medill,9,41.922278,-87.8020357
1.57595E+18,Narragansett & McLean,9,41.9158931,-87.7851104
1.58224E+18,Kedzie Ave & 52nd St,9,41.7990641,-87.703446
1.57595E+18,Bloomingdale Ave & Harlem Ave,9,41.9120739,-87.8057657
1.57595E+18,Lamon Ave & Chicago Ave,9,41.8952,-87.748223
646,State St & 54th St,11,41.796642,-87.625923
1.57595E+18,Monticello Ave & Chicago Ave,6,41.8952089,-87.7174329
1.57111E+18,Narragansett & Irving Park,9,41.952614,-87.7853829
1.57595E+18,Kildare Ave & Chicago Ave,9,41.8954359,-87.7335726
1.57111E+18,Panama Ave & Grace St,9,41.9476665,-87.829258
1.67725E+18,Public Rack - Ellis Ave & 132nd Pl,1,41.655139,-87.597597
1.57595E+18,Long Ave & North Ave,9,41.909212,-87.760999
1.59154E+18,MTV Hubbard St,6,41.8897772,-87.680351
1.58224E+18,Rockwell St & 63rd St,6,41.7787905,-87.6885894
1.58224E+18,Maplewood Ave & 59th St,9,41.7863375,-87.6874351
1.58224E+18,St Louis Ave & Norman Bobbins Ave,9,41.794422,-87.71137
1.58224E+18,Kedzie Ave & 48th Pl,12,41.8047515,-87.7041145
1.58224E+18,Kedzie Ave & 45th St,6,41.8113904,-87.7040052
1.58224E+18,Richmond St & 59th St,9,41.7865155,-87.6973314
1.58224E+18,California Ave & 36th St,9,41.8282301,-87.6945422
1.58224E+18,Hoyne Ave & 34th St,9,41.8320245,-87.6778387
1.58224E+18,Rockwell St & Archer Ave,9,41.823324,-87.689685
1.58224E+18,Rockwell St & 57th St,6,41.7903484,-87.6889201
1.57111E+18,Plainfield & Irving Park,9,41.952037,-87.833283
1.56101E+18,Komensky Ave & 31st St,1,41.836708,-87.725641
1.58224E+18,Sacramento Ave & Pershing Rd,9,41.8222791,-87.6996576
1.57595E+18,Central Park & Augusta Blvd,9,41.8989108,-87.7164901
677,Stewart Ave & 83rd St,15,41.743717,-87.634088
1.58224E+18,Archer Ave & 43rd St,6,41.8154913,-87.7024412
1.59404E+18,Tripp Ave & 65th St,9,41.7749163,-87.728841
1.59404E+18,Komensky Ave & 55th St,9,41.793279,-87.724189
1.58224E+18,Artesian Ave & 55th St,12,41.7940135,-87.685807
1.67385E+18,Public Rack - California Ave & Touhy Ave - NW,1,42.012177,-87.699865
1.59404E+18,Hamlin Ave & 62nd Pl,12,41.779953,-87.7178221
1.58224E+18,St Louis Ave & 59th St,9,41.785987,-87.7105616
1.58224E+18,Kedzie Ave & 57th St,9,41.789944,-87.703233
1.59404E+18,Springfield Ave & 47th St,9,41.8080713,-87.7212202
1.59405E+18,California Ave & 29th St,9,41.840222,-87.694129
1.57595E+18,Central Park Ave & Ohio St,9,41.8918718,-87.7163879
1.57595E+18,Leamington Ave & Hirsch St,9,41.9058405,-87.7548602
1.59377E+18,Pulaski Rd & 60th St,9,41.784186,-87.722564
1.58224E+18,Campbell Ave & 51st St,9,41.8009585,-87.6867556
1.58224E+18,Fairfield Ave & 44th St,9,41.813617,-87.6932272
1.59377E+18,Pulaski Rd & 51st St,12,41.800434,-87.7247496
1.59404E+18,Pulaski & Ann Lurie Pl,9,41.8162761,-87.7246058
1.59377E+18,Kostner Ave & 63rd St,9,41.778747,-87.732463
1.59377E+18,Lavergne Ave & 46th St,9,41.80934,-87.7478312
1.59404E+18,Kenneth Ave & 50th St,6,41.8023156,-87.7344142
1.59377E+18,Kildare Ave & 55th St,9,41.793357,-87.730598
1.59377E+18,Lawler Ave & 50th St,9,41.802209,-87.7489007
327,Sheffield Ave & Webster Ave,19,41.92154,-87.653818
1.59405E+18,Troy St & Grace St,9,41.950244,-87.706489
1.58224E+18,Homan Ave & 65th St,9,41.775144,-87.708129
1.59405E+18,Albany Ave & Belmont Ave,9,41.939638,-87.705263
1.59405E+18,Western Ave & Gunnison St,9,41.969659,-87.68955
1.59405E+18,Lincoln Ave & Balmoral Ave,9,41.979461,-87.693013
1.59405E+18,Milwaukee Ave & Fullerton Ave,9,41.924691,-87.70055
1.59405E+18,Sacramento Blvd & Polk St,9,41.870959,-87.700259
1.59405E+18,Damen Ave & 33rd St,9,41.834108,-87.67559
1.57595E+18,Kilpatrick Ave & Grand Ave,9,41.9127779,-87.7436434
1.59405E+18,Francisco Ave & Hollywood Ave,9,41.984746,-87.701593
1.59405E+18,Francisco Ave & Montrose Ave,9,41.9610471,-87.700901
1.59405E+18,Lincoln Ave & Peterson Ave,9,41.990247,-87.70858
1.57111E+18,Shabbona Park,1,41.944847,-87.799326
1.67419E+18,Public Rack - Austin Ave & Roscoe St,5,41.942196,-87.776472
1.67419E+18,Public Rack - Austin Ave & Wrightwood Ave,1,41.927666,-87.775682
1.67419E+18,Public Rack - Austin Blvd & North Ave,1,41.909281,-87.775613
1.67419E+18,Public Rack - Central Ave & George St,1,41.9326579,-87.7662058
1.67419E+18,Public Rack - Central Ave & North Ave,1,41.909414,-87.765817
1.59405E+18,California Ave & Winona St,6,41.974712,-87.697852
1.59405E+18,Rockwell St & Cermak Rd,9,41.851644,-87.690621
1.59405E+18,Richmond St & Lincoln Ave,6,41.988281,-87.703034
1.59405E+18,Sacramento Ave & 25th St,9,41.846506,-87.700139
1.57595E+18,Menard Ave & North Ave,9,41.9097167,-87.7702037
1.59405E+18,Kedzie Ave & George St,9,41.933886,-87.707262
1.57595E+18,Augusta Blvd & Laramie Ave,9,41.8986607,-87.7554551
1.59405E+18,Elston Ave & George St,9,41.934003,-87.690823
1.59405E+18,Albany Ave & Douglas Blvd,9,41.86314,-87.703022
1.60678E+18,Whipple/Irving Park,9,41.954189,-87.704448
1.59405E+18,Francisco Ave & Bloomingdale Ave,9,41.913959,-87.699368
1.67419E+18,Public Rack - Jonathan Y Scammon Public School,1,41.941612,-87.732372
1.59405E+18,Virginia Ave & Catalpa Ave,9,41.9812456,-87.7048924
1.59405E+18,Washtenaw Ave & Peterson Ave,9,41.99066,-87.697075
1.59405E+18,Albany Ave & 16th St,9,41.85936,-87.70302
1.59377E+18,Kildare Ave & 47th St,6,41.807526,-87.7308406
1.59405E+18,Rockwell St & Fletcher St,9,41.938689,-87.692972
1.58224E+18,Francisco Ave & 47th St,9,41.8084245,-87.696619
1.67419E+18,Public Rack - Harvey Ave & North Ave,3,41.909264,-87.782265
1.59405E+18,Elston Ave & Henderson St,9,41.941499,-87.701051
1.59405E+18,Western Ave & Ardmore Ave,9,41.9867636,-87.6898796
1.59405E+18,Sacramento Blvd & Fulton Ave,9,41.886528,-87.70167
1.59405E+18,Washtenaw Ave & Madison St,9,41.881286,-87.69396
1.59405E+18,Mozart St & Jackson Blvd,6,41.877507,-87.6974
1.59405E+18,N Shore Channel Trail & Argyle St,9,41.972177,-87.702749
1.59405E+18,Western Ave & Lake St,6,41.884606,-87.685853
1.59405E+18,Whipple St & Roosevelt Rd,9,41.866554,-87.701329
1.59405E+18,Sacramento Blvd & Addison St,9,41.94609,-87.702988
1.59405E+18,Washtenaw Ave & Polk St,9,41.8711028,-87.693683
1.67419E+18,Public Rack - Latrobe Ave & Lake St,1,41.887083,-87.756181
1.67419E+18,Public Rack - Lotus Ave & Harrison St,1,41.87298,-87.763267
1.67419E+18,Public Rack - McVicker Ave & Grand Ave,1,41.921251,-87.776662
1.67419E+18,Public Rack - Menard Ave & Belmont Ave,1,41.9384526,-87.7711009
1.67419E+18,Public Rack - Menard Ave & Dakin St - midblock,2,41.951732,-87.772005
1.67419E+18,Public Rack - Menard Ave & Grand Ave,1,41.9197904,-87.7709818
1.67419E+18,Public Rack - Michele Clark Magnet High School,2,41.872849,-87.753432
1.67419E+18,Public Rack - Narragansett Ave & Fullerton Ave,2,41.92378,-87.7843998
1.67419E+18,Public Rack - Sacramento Ave & Devon Ave,1,41.997575,-87.704649
98,LaSalle St & Washington St,15,41.882664,-87.63253
1.67419E+18,Public Rack - Abbott Park,2,41.721696,-87.622278
1.67419E+18,Public Rack - Cottage Grove & 86th St,1,41.738409,-87.604822
1.67419E+18,Public Rack - Sacramento Ave & Greenleaf Ave,6,42.009458,-87.704666
1.67419E+18,Public Rack - Keeler Ave & 55th St,1,41.79304,-87.728214
1.67419E+18,Public Rack - King Dr & 83rd St,1,41.743616,-87.61457
1.67419E+18,Public Rack - Sacramento Blvd & Division St,3,41.907928,-87.701479
1.67419E+18,Public Rack - Spencer Elementary Technology Academy,2,41.884655,-87.750498
1.67419E+18,Public Rack - Lafayette Ave & 87th St SW,1,41.736223,-87.626737
1.67419E+18,Public Rack - Lake Park Ave & 44th St,1,41.814697,-87.598006
1.67419E+18,Public Rack - Lake Park Ave & 47th St,1,41.809797,-87.591824
1.67419E+18,Public Rack - Langley Ave & 79th St,2,41.751103,-87.607432
1.67419E+18,Public Rack - Lawrence Ave & 103rd St,1,41.707665,-87.608695
1.67419E+18,Public Rack - Longwood Dr & 95th St,1,41.720921,-87.669585
1.59405E+18,Campbell Ave & Irving Park Rd,9,41.953634,-87.690782
1.59405E+18,Western Ave & Grace St,9,41.95039,-87.688234
1.67419E+18,Public Rack - Loomis Blvd & 83rd St,1,41.743271,-87.658769
1.67419E+18,Public Rack - Loomis St & 87th St,1,41.735465,-87.657585
1.56101E+18,Kildare & Cermak,9,41.851414,-87.73215
1.59405E+18,Troy Ave & 27th St,9,41.84265,-87.70401
1.67419E+18,Public Rack - Ashland Ave & 46th St,1,41.810537,-87.665404
1.67419E+18,Public Rack - Avenue J & 102nd St,2,41.709832,-87.534238
1.67419E+18,Public Rack - Brandon Ave & 91st St,1,41.730218,-87.546758
1.67419E+18,Public Rack - Calumet Ave & 103rd St,1,41.707061,-87.615309
1.67419E+18,Public Rack - Calumet Ave & 133rd St,2,41.653975,-87.614225
1.67419E+18,Public Rack - Central Ave & Adams St,8,41.878264,-87.764886
1.67419E+18,Public Rack - Commercial Ave & 89th St,1,41.733543,-87.551152
1.67419E+18,Public Rack - Cottage Grove Ave & 111th St,1,41.692645,-87.609758
1.67419E+18,Public Rack - Cottage Grove Ave & 92nd St,1,41.727319,-87.604787
1.67419E+18,Public Rack - Austin Branch Chicago Public Library,2,41.889161,-87.765738
1.67419E+18,Public Rack - Avenue O & 118th St,1,41.681136,-87.54029
1.67419E+18,Public Rack - Back of the Yards Park,1,41.804381,-87.657742
1.67419E+18,Public Rack - Canty Elementary School,2,41.947562,-87.829311
1.67419E+18,Public Rack - Christiana Ave & Archer Ave,1,41.81175,-87.707577
1.67419E+18,Public Rack - Corliss Ave & 103rd St,1,41.707622,-87.60355
1.67419E+18,Public Rack - Cottage Grove Ave & 91st St,1,41.72951,-87.603739
1.67419E+18,Public Rack - Ewing Ave & 105th St,1,41.704373,-87.53544
1.67419E+18,Public Rack - Ashland Ave & 71st St,2,41.76577,-87.66433
1.67419E+18,Public Rack - Forrestville Ave & 47th St,1,41.809319,-87.612921
1.67419E+18,Public Rack - Harding Ave & 47th St,1,41.807749,-87.722579
1.67419E+18,Public Rack - Harvard Ave & 103rd St,1,41.706863,-87.631674
1.67419E+18,Public Rack - Kedzie & 103rd St - W,1,41.705247,-87.701424
1.67419E+18,Public Rack - Langley Ave & 105th Pl,2,41.702472,-87.606477
1.67419E+18,Public Rack - 83rd St (Avalon Park) Metra,1,41.743916,-87.598786
1.67419E+18,Public Rack - Archer Park,2,41.803822,-87.73551
1.67419E+18,Public Rack - Avers Ave & Archer Ave,2,41.804487,-87.719584
1.67419E+18,Public Rack - Baltimore Ave & 134th St,1,41.651419,-87.547321
1.67419E+18,Public Rack - Bishop St & 46th St,1,41.80994,-87.661522
1.67419E+18,Public Rack - Bradley Park,1,41.718353,-87.564459
1.67419E+18,Public Rack - Cottage Grove & 84th St,1,41.741957,-87.604839
1.67419E+18,Public Rack - Emerald Ave & 45th St,1,41.812381,-87.644633
1.67419E+18,Public Rack - Ewing Ave & 99th St,2,41.7159614,-87.5351111
1.67419E+18,Public Rack - Greenwood Ave & Lake Park Ave,1,41.817372,-87.599576
1.67419E+18,Public Rack - Homan Ave & 111th St,1,41.691578,-87.705842
1.67419E+18,Public Rack - Kedzie & 103rd St - East,1,41.705444,-87.701232
1.67419E+18,Public Rack - Kenneth Ave & 63rd St W,10,41.778404,-87.733951
1.67419E+18,Public Rack - Ada St & 95th St,1,41.72158,-87.65612
1.67419E+18,Public Rack - Avenue M & 132nd St,2,41.655692,-87.537595
1.67419E+18,Public Rack - Kedzie Ave & 54th St - SE,1,41.794326,-87.703471
1.67419E+18,Public Rack - Lafayette Ave & 95th St,10,41.721787,-87.624939
1.67419E+18,Public Rack - Baltimore Ave & 132nd St,1,41.655201,-87.546942
1.67419E+18,Public Rack - Buffalo Ave & 89th St,3,41.73341,-87.54454
1.67419E+18,Public Rack - Central Ave & Corcoran Pl,1,41.887342,-87.765041
1.67419E+18,Public Rack - Cottage Grove Ave & 87th St,1,41.736448,-87.60616
1.67419E+18,Public Rack - Ewing Ave & 101st St,1,41.7117328,-87.5350591
1.67419E+18,Public Rack - Ewing Ave & 96th St N,1,41.7215552,-87.5356904
1.67419E+18,Public Rack - Hiawatha Park,1,41.944068,-87.827302
1.67419E+18,Public Rack - Houston Ave & 131st St,10,41.656961,-87.548521
1.67419E+18,Public Rack - Indiana Ave & 111th St,9,41.692535,-87.617711
1.67419E+18,Public Rack - Kedzie Ave & 54th St - SW,1,41.795222,-87.703719
1.67419E+18,Public Rack - Kildare Ave & Washignton Blvd,1,41.881838,-87.733661
1.67419E+18,Public Rack - Komensky Ave & 59th St,1,41.786049,-87.723645
1.67419E+18,Public Rack - Buffalo Ave & 133rd St,2,41.65428,-87.543539
1.67419E+18,Public Rack - Pulaski Rd & 40th St,2,41.81864,-87.72428
1.67419E+18,Public Rack - Ada St & 117th St,1,41.681128,-87.655064
1.67419E+18,Public Rack - Ashland Ave & 45th St,1,41.811958,-87.664862
1.67419E+18,Public Rack - Avenue J & 106th St,1,41.70261,-87.533531
1.67419E+18,Public Rack - Avenue J & 112th St,2,41.691844,-87.534181
1.67419E+18,Public Rack - Burnside Academy,2,41.728525,-87.608231
1.67419E+18,Public Rack - California Ave & Pershing Rd,10,41.822632,-87.695024
1.67419E+18,Public Rack - Calumet Ave & 51st St,1,41.802221,-87.618457
1.67419E+18,Public Rack - Cottage Grove & 85th St,1,41.740086,-87.604743
1.67419E+18,Public Rack - Ashland Ave & 76th St,2,41.75596,-87.66391
1.67419E+18,Public Rack - Eberhart Ave & 131st St,2,41.65759,-87.610713
1.67419E+18,Public Rack - Kedzie Ave & Archer Ave,2,41.81359,-87.70478
1.67419E+18,Public Rack - Damen Ave & 47th St,1,41.808884,-87.67513
1.67419E+18,Public Rack - Ewing Ave & Indianapolis Ave,1,41.712353,-87.53545
1.67419E+18,Public Rack - Halsted St & 102nd St,1,41.70794,-87.643177
1.67419E+18,Public Rack - Houston Ave & 91st St,1,41.729964,-87.549645
1.67419E+18,Public Rack - Jeffery Blvd & 83rd St,1,41.744345,-87.575043
1.67419E+18,Public Rack - Justine St & 87th St,1,41.736019,-87.66243
1.67419E+18,Public Rack - Kedzie Ave & Pershing Rd,1,41.822897,-87.704154
1.67419E+18,Public Rack - Albany Ave & 111th St - NW,1,41.691669,-87.698507
1.67419E+18,Public Rack - Ashland Ave & 45th St  S,1,41.811169,-87.66474
1.67419E+18,Public Rack - Baltimore Ave & 133rd St,2,41.653444,-87.547004
1.67419E+18,Public Rack - Brighton Park Branch Chicago Library,2,41.815242,-87.702651
1.67419E+18,Public Rack - Central Ave & Congress Pkwy,2,41.87369,-87.764746
1.67419E+18,Public Rack - Ellis Ave & Doty Ave,2,41.659119,-87.597052
1.67419E+18,Public Rack - Ewing Ave & 112th St,1,41.691979,-87.534912
1.67419E+18,Public Rack - Halsted St & 95th St - SW,1,41.720964,-87.643447
1.67419E+18,Public Rack - Harriet E Sayre Public School,3,41.913547,-87.79876
1.67419E+18,Public Rack - Kedzie Ave & 58th St,2,41.788263,-87.703576
1.67419E+18,Public Rack - Lafayette Ave & 119th St,1,41.677853,-87.623447
1.67419E+18,Public Rack - McCormick Blvd & Devon Ave,3,41.996194,-87.712
1.67419E+18,Public Rack - Milwaukee Ave & Addison St,3,41.94651,-87.735721
1.67419E+18,Public Rack - Milwaukee Ave & Diversey Ave,2,41.93123,-87.711501
1.67419E+18,Public Rack - Champlain Ave & 134th St,2,41.657379,-87.606444
1.67419E+18,Public Rack - Milwaukee Ave & Haussen Ct,2,41.937752,-87.721623
1.67419E+18,Public Rack - Milwaukee Ave & School St,1,41.940648,-87.726087
1.67419E+18,Public Rack - Monticello Ave & Belmont Ave,2,41.939472,-87.718423
1.67419E+18,Public Rack - Mozart Elementary School,6,41.921325,-87.722375
1.67419E+18,Public Rack - Penn Elementary School / KIPP Ascend Middle School,4,41.8586742,-87.7223835
1.67419E+18,Public Rack - Pulaski Rd & 15th St,1,41.8603966,-87.7250977
1.67419E+18,Public Rack - Pulaski Rd & Armitage Ave,2,41.91702,-87.727096
1.67419E+18,Public Rack - Pulaski Rd & Fullerton Ave,4,41.924618,-87.727398
1.67419E+18,Public Rack - Pulaski Rd & Roosevelt Rd,1,41.866103,-87.724463
1.67419E+18,Public Rack - Roswell B. Mason Elementary School,4,41.8560219,-87.7298436
1.67419E+18,Public Rack - S Kostner Ave & W 18th Pl,1,41.8551905,-87.7345547
1.67419E+18,Public Rack - Spaulding Ave & Bryn Mawr Ave,2,41.982964,-87.711441
1.67419E+18,Public Rack - Spaulding Ave & Evergreen Ave,2,41.905317,-87.709521
1.67419E+18,Public Rack - Spaulding Ave & North Ave,4,41.910138,-87.709553
1.67419E+18,Public Rack - St Louis Ave & Berteau Ave,1,41.958373,-87.715685
1.67419E+18,Public Rack - Western Ave & Jarvis Ave,1,42.016398,-87.690376
1.67419E+18,Public Rack - Whipple St & 26th St,2,41.843636,-87.701931
1.67419E+18,Public Rack - Zapata Academy,3,41.841655,-87.734366
1.67725E+18,Public Rack - Sawyer Ave & Bryn Mawr Ave - SE,1,41.9830174,-87.7096999
1.67725E+18,Public Rack - Christiana Ave & Bryn Mawr Ave,1,41.982838,-87.71233
1.67725E+18,Public Rack - Spaulding Ave & Foster Ave,1,41.975921,-87.710415
1.67725E+18,Public Rack - Christiana Ave & Lawrence Ave,2,41.968547,-87.712582
1.67725E+18,Public Rack - Sawyer Ave & Lawrence Ave,1,41.9683,-87.709435
1.67725E+18,Public Rack - Milwaukee Ave & Waveland Ave,1,41.947472,-87.737875
1.67725E+18,Public Rack - Karlov Ave & Milwaukee Ave,1,41.942702,-87.730011
1.67725E+18,Public Rack - Kedvale Ave & Addison St,2,41.947174,-87.730837
35,Streeter Dr & Grand Ave,47,41.892278,-87.612043
1.67419E+18,Public Rack - Melvina Ave & Belmont Ave,1,41.9384207,-87.7813896
1.69578E+18,Public Rack - Ewing Ave & 107th St,1,41.700378,-87.535276
289,Wells St & Concord Ln,19,41.912133,-87.634656
1.69578E+18,Public Rack - Ave L & 105th St,1,41.703542,-87.536634
1.69578E+18,Public Rack - Ewing Ave & 95th St,1,41.722376,-87.5358299
1.68353E+18,Public Rack - Vincennes Ave & 91st St,1,41.728122,-87.648524
684,Prospect Sq & 91st St,15,41.7282338,-87.6675239
1.59405E+18,Western Ave & Berteau Ave,6,41.95774,-87.688273
1.68353E+18,Public Rack - State ST & 42nd St,1,41.819067,-87.626417
1.67419E+18,Public Rack - Eggleston Ave & 114th St,3,41.686642,-87.633547
555,Ashland Ave & 50th St,11,41.803023,-87.664699
1.69578E+18,Public Rack - Ashland Ave & 91st St,1,41.728271,-87.662673
1.68353E+18,Public Rack - Crandon Ave & 80th St,1,41.749519,-87.568831
524,Austin Blvd & Chicago Ave,7,41.894887,-87.774704
1.68353E+18,Public Rack - Jeffery Blvd & 81st St,1,41.74927751,-87.57585394
1.67419E+18,Public Rack - Lowe Ave & 94th St,2,41.724234,-87.639453
1.68353E+18,Public Rack - Houston Ave & 130th St,1,41.658962,-87.548528
1.68353E+18,Public Rack - King Dr & 115th St,1,41.685239,-87.613418
1.68353E+18,Public Rack - Michigan Ave & 107th St,1,41.699671,-87.621034
62,McCormick Place,27,41.85137517,-87.61883465
1.69578E+18,Public Rack - Lamon Ave & Erie St,3,41.892114,-87.746676
1.69578E+18,Public Rack - Halsted St & 113th St,1,41.68851,-87.642512
1.69578E+18,Public Rack - Wallace St & 119th St,1,41.677629,-87.637554
1.67419E+18,Public Rack - Lowe Ave & 98th St,2,41.715887,-87.639228
1.67419E+18,Public Rack - Mackinaw Ave & 106th St,1,41.702557,-87.542728
1.67419E+18,Public Rack - Mackinaw Ave & 108th St,1,41.699008,-87.542833
1.44864E+18,Martin Luther King Dr & 111th St,6,41.69263896,-87.61367387
1.69578E+18,Public Rack - Ewing Ave & 102nd St,1,41.709948,-87.535365
1.69578E+18,Public Rack - Richmond St & Thorndale Ave,10,41.988931,-87.702785
1.67419E+18,Public Rack - Mackinaw Ave & 85th St,1,41.741897,-87.543162
1.68353E+18,Public Rack - Saginaw Ave & 93rd St,1,41.726199,-87.559252
1.69578E+18,Public Rack - Ewing Ave & 106th St,2,41.7024928,-87.5351313
1.68353E+18,Public Rack - Stony Island & 87th St,1,41.7367,-87.585815
1.69578E+18,Public Rack - Langley Ave & 87th St,1,41.735828,-87.606981
1.69578E+18,Public Rack - Kostner Ave & Wrightwood Ave,9,41.92786,-87.735756
1.69578E+18,Public Rack - Clyde Ave & 87th St,3,41.73715,-87.57319
1.68353E+18,Public Rack - 53rd St & Indiana Ave,1,41.798015,-87.620745
1.68353E+18,Public Rack - King Dr & Oakwood Blvd,1,41.822827,-87.616486
1.68353E+18,Public Rack - Langley Ave & Oakwood Blvd,2,41.822839,-87.609525
1.69578E+18,Public Rack - Fullerton Ave & Narragansett Ave,1,41.923739,-87.785835
1.69578E+18,Public Rack - Pulaski Rd & Lake St,1,41.885577,-87.72606
1.68353E+18,Public Rack - Paxton Ave & 79th St,1,41.75167773,-87.57045748
134,Peoria St & Jackson Blvd,19,41.8776416,-87.64961779
1.69578E+18,Public Rack - Roscoe St & Osceola Ave,1,41.942201,-87.813168
1.69578E+18,Public Rack - Normal Ave & 111th St,1,41.692303,-87.635478
1.69578E+18,Public Rack - Union Ave & 111th St,1,41.692232,-87.640609
1.69578E+18,Public Rack - Princeton Ave & 103rd Pl,1,41.70633,-87.630936
1.69578E+18,Public Rack - Halsted St & 109th St,1,41.695655,-87.642804
24,Fairbanks Ct & Grand Ave,15,41.89184737,-87.6205802
259,California Ave & Francis Pl (Temp),15,41.91849115,-87.6974228
350,Ashland Ave & Chicago Ave,15,41.89517271,-87.66754702
1.68353E+18,Public Rack - Western Ave & Devon Ave,1,41.997579,-87.689713
115,Sheffield Ave & Wellington Ave,23,41.93625348,-87.6526621
102,Stony Island Ave & 67th St,11,41.7734585,-87.58533974
12,South Shore Dr & 71st St,15,41.76640946,-87.56568757
124,Damen Ave & Cullerton St,15,41.85496652,-87.67569959
127,Lincoln Ave & Fullerton Ave,15,41.92416103,-87.64638037
132,Wentworth Ave & 24th St (Temp),15,41.85008369,-87.63214052
145,Mies van der Rohe Way & Chestnut St,19,41.89858665,-87.62191523
156,Clark St & Wellington Ave,15,41.93649682,-87.64753866
157,DuSable Lake Shore Dr & Wellington Ave,15,41.93668845,-87.63682902
172,Rush St & Cedar St,11,41.9023087,-87.62769053
184,State St & 35th St,19,41.83103631,-87.62679756
217,Elizabeth (May) St & Fulton St,15,41.88661649,-87.65803993
239,Western Ave & Leland Ave,19,41.9663998,-87.68870428
270,Stony Island Ave & 75th St,11,41.75866967,-87.58688287
278,Wallace St & 35th St,15,41.83070705,-87.64125533
286,Franklin St & Adams St (Temp),15,41.87943409,-87.63550401
31,Franklin St & Chicago Ave,23,41.89674697,-87.63566762
319,Greenview Ave & Diversey Pkwy,15,41.93258963,-87.66593635
325,Clark St & Winnemac Ave,19,41.97334764,-87.66785547
34,Cannon Dr & Fullerton Ave,15,41.92675599,-87.63442879
348,California Ave & 21st St,15,41.85380407,-87.6957424
135,Halsted St & 21st St,11,41.85377981,-87.64660299
211,St. Clair St & Erie St,19,41.89434514,-87.62279838
1.68353E+18,Public Rack - Exchange Ave & 73rd Pl,1,41.76261263,-87.56381871
1.69578E+18,Public Rack - Langley Ave & 49th St,3,41.805218,-87.609076
133,Kingsbury St & Kinzie St,31,41.88917683,-87.63850577
161,Rush St & Superior St,23,41.89576475,-87.62590803
208,Laflin St & Cullerton St,15,41.85491458,-87.66355991
1.69578E+18,Public Rack - Pulaski Rd & Polk St,1,41.8703637,-87.7252556
1.69578E+18,Public Rack - Hamlin Ave & Madison St,1,41.880833,-87.720797
173,Mies van der Rohe Way & Chicago Ave,15,41.89694463,-87.62175769
352,Jeffery Blvd & 67th St,11,41.77351755,-87.57714283
353,Clark St & Touhy Ave,15,42.01256012,-87.67436712
354,Sheridan Rd & Greenleaf Ave,15,42.01058656,-87.6624121
356,Stony Island Ave & 71st St,11,41.76649294,-87.58646088
359,Larrabee St & Division St,23,41.90348607,-87.64335349
364,Larrabee St & Oak St,19,41.90021949,-87.64298547
365,Halsted St & North Branch St,15,41.89939029,-87.64854491
366,Loomis St & Archer Ave,11,41.84163254,-87.65743495
368,Ashland Ave & Archer Ave,15,41.83920868,-87.66560986
369,Wood St & 35th St,11,41.83010465,-87.67029831
37,Dearborn St & Adams St,19,41.87935636,-87.62979104
370,Calumet Ave & 21st St,15,41.85418425,-87.61915374
373,Kedzie Ave & Chicago Ave,11,41.8954653,-87.70612788
374,Western Ave & Walton St,23,41.89841769,-87.68659602
375,Sacramento Blvd & Franklin Blvd,11,41.89046879,-87.70260751
376,Artesian Ave & Hubbard St,35,41.88949182,-87.68821937
38,Clark St & Lake St,27,41.88602083,-87.63087606
382,Western Ave & Congress Pkwy,19,41.87474885,-87.68644528
386,Halsted St & 56th St,11,41.79292965,-87.64499006
39,Wabash Ave & Adams St,23,41.87947235,-87.62568861
390,Wentworth Ave & 63rd St,11,41.78007963,-87.62974631
391,Halsted St & 69th St,11,41.76906172,-87.64461358
392,Perry Ave & 69th St,11,41.76929309,-87.62819593
393,Calumet Ave & 71st St,11,41.76550801,-87.61691793
395,Jeffery Blvd & 76th St,11,41.75712007,-87.57583936
398,Rainbow Beach,15,41.75787145,-87.54938625
399,South Shore Dr & 74th St,11,41.76218896,-87.55927465
403,Wentworth Ave & 33rd St,15,41.83452989,-87.63182298
406,Lake Park Ave & 35th St,19,41.83127424,-87.6087992
407,State St & Pershing Rd,11,41.82301524,-87.62656802
409,Shields Ave & 43rd St,11,41.81620768,-87.63481935
41,Federal St & Polk St,19,41.87207763,-87.62954377
410,Prairie Ave & 43rd St,15,41.81665889,-87.61941246
411,Halsted St & 47th Pl,11,41.80813392,-87.64561655
412,Princeton Ave & 47th St,11,41.80931771,-87.63344929
2,Buckingham Fountain,39,41.876423,-87.620339
40,LaSalle St & Adams St,15,41.87934437,-87.63198522
36,Franklin St & Jackson Blvd,39,41.87770796,-87.63532114
384,Halsted St & 51st St,11,41.80183164,-87.6452139
413,Woodlawn Ave & Lake Park Ave,15,41.81409271,-87.59700515
415,Calumet Ave & 51st St,11,41.80229465,-87.61805358
418,Ellis Ave & 53rd St,11,41.79933626,-87.60095812
420,Ellis Ave & 55th St,19,41.79430062,-87.60144977
421,MLK Jr Dr & 56th St,11,41.79342946,-87.61585326
422,DuSable Museum,11,41.79156801,-87.60785218
424,Museum of Science and Industry,27,41.79172821,-87.58394501
426,Ellis Ave & 60th St,19,41.78509715,-87.60107276
431,Eberhart Ave & 61st St,11,41.78407107,-87.61448354
428,Dorchester Ave & 63rd St,11,41.78040565,-87.59141599
43,Michigan Ave & Washington St,43,41.88398407,-87.62468398
430,MLK Jr Dr & 63rd St,11,41.78008064,-87.61594286
433,Kedzie Ave & Harrison St,11,41.87359968,-87.70487075
434,Ogden Ave & Roosevelt Rd,19,41.86650148,-87.68469707
435,Kedzie Ave & Roosevelt Rd,11,41.86649278,-87.70649618
437,Washtenaw Ave & Ogden Ave,15,41.86193049,-87.69345045
438,Central Park Ave & Ogden Ave,15,41.8540635,-87.71511734
441,Kedzie Ave & 24th St,11,41.84819095,-87.70541375
443,Millard Ave & 26th St,7,41.84453113,-87.715922
445,California Ave & 26th St,11,41.84367992,-87.69496858
447,Glenwood Ave & Morse Ave,15,42.00797192,-87.66550239
448,Warren Park East,11,42.00454962,-87.68066615
449,Clark St & Columbia Ave,15,42.00445063,-87.67240241
451,Sheridan Rd & Loyola Ave,23,42.00104378,-87.66119824
453,Clark St & Schreiber Ave,15,41.99925182,-87.67137734
454,Broadway & Granville Ave,23,41.99477969,-87.66028454
455,Maplewood Ave & Peterson Ave,11,41.99023603,-87.69336964
457,Clark St & Elmdale Ave,15,41.99086045,-87.66972363
458,Broadway & Thorndale Ave,19,41.98974251,-87.66014062
461,Broadway & Ridge Ave,15,41.98404461,-87.66027383
464,Damen Ave & Foster Ave,15,41.97561481,-87.67945904
466,Ridge Blvd & Touhy Ave,11,42.01213228,-87.68291264
467,Western Ave & Lunt Ave,15,42.0085944,-87.69049224
419,Lake Park Ave & 53rd St,15,41.79949429,-87.5864499
442,California Ave & 23rd Pl,11,41.84910969,-87.69513981
444,Albany Ave & 26th St,11,41.84447501,-87.70201301
463,Clark St & Berwyn Ave,19,41.97803062,-87.66856492
425,Harper Ave & 59th St,15,41.78794281,-87.58831517
468,Budlong Woods Library,11,41.98366471,-87.69642256
469,St. Louis Ave & Balmoral Ave,15,41.98039424,-87.71611496
471,Francisco Ave & Foster Ave,15,41.97563273,-87.70141944
472,Lincoln Ave & Winona St,15,41.9749113,-87.69250256
474,Christiana Ave & Lawrence Ave,15,41.96835449,-87.71183067
476,Kedzie Ave & Leland Ave,15,41.96668636,-87.70805198
478,Rockwell St & Eastwood Ave,15,41.96590014,-87.69363849
479,Drake Ave & Montrose Ave,15,41.96115408,-87.71656907
482,Campbell Ave & Montrose Ave,15,41.96152593,-87.69116504
484,Monticello Ave & Irving Park Rd,15,41.95400484,-87.71912818
485,Sawyer Ave & Irving Park Rd,15,41.95358618,-87.7093108
486,Oakley Ave & Irving Park Rd,15,41.95434085,-87.68607962
487,California Ave & Byron St,19,41.95216219,-87.69805111
490,Troy St & Elston Ave,15,41.94524357,-87.7066499
491,Talman Ave & Addison St,15,41.94663583,-87.69461476
504,Campbell Ave & Fullerton Ave,15,41.92463247,-87.68930701
505,Winchester Ave & Elston Ave,15,41.92409085,-87.67646008
506,Spaulding Ave & Armitage Ave,15,41.91710804,-87.71022096
507,Humboldt Blvd & Armitage Ave,19,41.91751339,-87.70180896
508,Central Park Ave & North Ave,15,41.90965688,-87.71663195
509,Troy St & North Ave,15,41.9097693,-87.70528049
510,Spaulding Ave & Division St,11,41.90270659,-87.70921957
523,Eastlake Ter & Rogers Ave,15,42.02088728,-87.66505793
532,Austin Blvd & Lake St,11,41.88794379,-87.77427346
561,Damen Ave & 59th St,11,41.78586107,-87.67414391
57,Clinton St & Roosevelt Rd,15,41.86711778,-87.64108796
58,Elston Ave & Cortland St,23,41.91643343,-87.66674638
60,Dayton St & North Ave,19,41.91057804,-87.64942193
67,Sheffield Ave & Fullerton Ave,27,41.92560188,-87.65370804
672,Franklin St & Illinois St,11,41.89102331,-87.63547987
673,Lincoln Park Conservatory,31,41.92393131,-87.63582453
678,Halsted St & 73rd St,15,41.76160544,-87.64416098
511,Albany Ave & Bloomingdale Ave,15,41.91402671,-87.70512646
56,Desplaines St & Kinzie St,27,41.88871604,-87.64444785
49,Dearborn St & Monroe St,39,41.88131982,-87.62952092
647,Elizabeth St & 59th St,7,41.78969688,-87.6546979
638,Clinton St & Jackson Blvd,31,41.87831661,-87.64098108
682,Eberhart Ave & 91st St,15,41.72928516,-87.61103153
683,Ashland Ave & 78th St,15,41.75220485,-87.66369939
685,Summit Ave & 86th St,15,41.73784848,-87.64489979
686,East End Ave & 87th St,15,41.73681521,-87.58280128
689,Elizabeth St & 92nd St,15,41.72679896,-87.6542902
69,Damen Ave & Pierce Ave,23,41.90939601,-87.67769193
691,Eggleston Ave & 92nd St,15,41.72757566,-87.63482809
692,Marquette Ave & 89th St,15,41.73366879,-87.55834222
694,Houston Ave & 92nd St,15,41.72820422,-87.54970014
695,Dauphin Ave & 103rd St,15,41.70725037,-87.60766268
696,Indiana Ave & 103rd St,15,41.70717027,-87.61847198
698,Cottage Grove Ave & 111th Pl,15,41.69170976,-87.61000156
699,Vernon Ave & 107th St,15,41.70012138,-87.61225998
700,Halsted St & 96th St,15,41.71971218,-87.64301956
701,Constance Ave & 95th St,15,41.72229074,-87.57896841
702,Greenwood Ave & 91st St,15,41.72826427,-87.59729862
703,Greenwood Ave & 97th St,15,41.71870316,-87.59703577
704,Avenue O & 134th St,15,41.6518678,-87.53967136
705,Stony Island Ave & 90th St,15,41.73139494,-87.58574367
706,Dauphin Ave & 87th St,15,41.73655902,-87.60125756
708,Clyde Ave & 87th St,15,41.73715146,-87.57274032
709,Michigan Ave & 114th St,15,41.6870148,-87.62105227
710,Burnham Greenway & 105th St,11,41.70457509,-87.52823174
711,Halsted St & 111th St,15,41.69226256,-87.64261186
713,Major Taylor Trail & 115th St,15,41.6849316,-87.64528871
714,State St & 123rd St,15,41.67064384,-87.62258649
715,Major Taylor Trail & 124th St,15,41.66869635,-87.63711333
71,Sangamon St & Lake St,23,41.88577925,-87.65102461
717,Big Marsh Park,15,41.68587706,-87.57382393
697,Oglesby Ave & 100th St,15,41.71339748,-87.56584168
679,Ashland Ave & 74th St,15,41.75923602,-87.66347408
7,Field Blvd & South Water St,19,41.88634906,-87.61751655
681,Halsted St & 78th St,15,41.75248701,-87.64390216
707,Torrence Ave & 106th St,15,41.70280085,-87.55972624
1.67725E+18,Public Rack - Kilbourn Ave & Fullerton Ave,1,41.924447,-87.73998
687,Loomis Blvd & 84th St,15,41.74148653,-87.65841007
719,Avenue O & 118th St,15,41.68100146,-87.53793122
720,Torrence Ave & 126th Pl,15,41.66631201,-87.55721569
721,Walden Pkwy & 100th St,15,41.7121641,-87.66773343
722,Commercial Ave & 130th St,15,41.65915043,-87.5507623
723,Hale Ave & 107th St,11,41.69920617,-87.66891897
724,Homewood Ave & 115th St,15,41.68459507,-87.670708
725,Halsted St & 104th St,15,41.70513979,-87.64242411
712,Wentworth Ave & 104th St,15,41.705308,-87.62921691
726,Vincennes Ave & 104th St,15,41.70492557,-87.65686811
727,Ada St & 113th St,15,41.68756162,-87.65547574
728,Western Ave & 111th St,23,41.69121104,-87.68129736
730,Lawndale Ave & 111th St,15,41.69131919,-87.71288574
731,Bradley Park,11,41.7178783,-87.56459177
732,Hegewisch Metra Station,15,41.64850076,-87.54608989
734,Commercial Ave & 100th St,15,41.7133174,-87.55109757
735,Western Ave & 104th St,15,41.7045871,-87.68120349
736,Kedzie Ave & 110th St,11,41.69239475,-87.70096064
737,Chicago State University,23,41.71896342,-87.60829568
738,Calumet Park,15,41.71370983,-87.53084421
739,Altgeld Gardens,15,41.65666553,-87.59880066
74,Kingsbury St & Erie St,23,41.89380806,-87.64169723
741,Yates Blvd & 93rd St,15,41.72616639,-87.56627619
742,Doty Ave & 111th St,15,41.69501045,-87.59871483
748,Olive Harvey College,15,41.70958114,-87.59023368
760,Lakefront Trail & Bryn Mawr Ave,19,41.98404412,-87.65228123
89,Financial Pl & Ida B Wells Dr,31,41.87502363,-87.63309404
9,Leavitt St & Archer Ave,15,41.82879202,-87.68060446
99,McClurg Ct & Ohio St,19,41.89259212,-87.61728913
1.69578E+18,Public Rack - Perry Ave & 111th St,1,41.692666,-87.626385
753,State St & Chicago Ave,15,41.8966172,-87.62857854
749,Burnham Greenway & 112th St,15,41.69177385,-87.53043115
740,Loomis St & 89th St,15,41.73237975,-87.65806943
1.67725E+18,Public Rack - Grand Ave & North Ave,2,41.909614,-87.734722
1.68353E+18,Public Rack - Lorel Ave & Grand Ave,10,41.9176685,-87.7595531
1.67725E+18,Public Rack - Homan Ave & 26th St,1,41.84456,-87.710058
1.69578E+18,Public Rack - Ave N & 106th St,1,41.702616,-87.538744
96,Desplaines St & Randolph St,23,41.88461619,-87.64457059
1.67419E+18,Public Rack - 111th St - Morgan Park Metra,2,41.692738,-87.670569
1.68353E+18,Public Rack - Campbell Ave & Pratt Blvd,1,42.00507,-87.692643
1.68353E+18,Public Rack - Drake Ave & Leland Ave,2,41.9659853,-87.716876
1.68353E+18,Public Rack - Jensen Park,1,41.964864,-87.720774
1.68353E+18,Public Rack - Kostner Ave & 16th St,1,41.8588018,-87.7343019
1.68353E+18,Public Rack - Washtenaw Ave & Devon Ave,1,41.997764,-87.697221
1.69578E+18,Public Rack - Pulaski Rd & 5th Ave,1,41.8730082,-87.7252516
1.69578E+18,Public Rack - Pulaski Rd & Lexington St,1,41.8715832,-87.7252086
1.67419E+18,Public Rack - 63rd & Western Ave S,1,41.779196,-87.683589
1.69578E+18,Public Rack - Foster Ave & Drake Ave,2,41.975563,-87.717352
1.69578E+18,Public Rack - Lockwood Ave & Diversey Ave,1,41.931541,-87.75904
1.69578E+18,Public Rack - Central Park Ave & 16th St,1,41.858938,-87.7157269
1.69578E+18,Public Rack - Laporte Ave & Armitage Ave,1,41.917047,-87.750008
1.69578E+18,Public Rack - Fullerton Ave & Lavergne Ave,1,41.92398,-87.75195
1.69578E+18,Public Rack - Leclaire Ave & Division St,1,41.90205,-87.75305
1.69578E+18,Public Rack - La Moyne Ave and Leamington Ave,2,41.906866,-87.754447
1.69578E+18,Public Rack - Peterson Ave & Drake Ave,2,41.990119,-87.717337
1.69578E+18,Public Rack - Peterson Ave & Bernard Ave,1,41.990234,-87.715634
1.69578E+18,Public Rack - Kostner Ave & Diversey Ave,1,41.931803,-87.737285
1.69578E+18,Public Rack - Pulaski Rd & Flournoy St,1,41.8724252,-87.7253448
1.44864E+18,Avenue L & 114th St,0,41.6881169,-87.5365497
296,Broadway & Belmont Ave,19,41.940106,-87.645451
322,Kimbark Ave & 53rd St,19,41.799568,-87.594747
596,Benson Ave & Church St,15,42.048214,-87.683485
502,California Ave & Altgeld St,15,41.92669,-87.697668
316,Damen Ave & Sunnyside Ave,19,41.96325,-87.679258
1.67419E+18,Public Rack - Albany Ave & 103rd St,1,41.706747,-87.700047
220,Clark St & Drummond Pl,23,41.931248,-87.644336
662,Dodge Ave & Mulford St,15,42.023463,-87.699595
635,Fairbanks St & Superior St,11,41.895748,-87.620104
480,Albany Ave & Montrose Ave,11,41.961041,-87.705866
300,Broadway & Barry Ave,19,41.93758232,-87.64409781
334,DuSable Lake Shore Dr & Belmont Ave,19,41.940775,-87.639192
75,Canal St & Jackson Blvd,43,41.877245,-87.639366
408,Union Ave & Root St,11,41.819102,-87.643278
642,Latrobe Ave & Chicago Ave,7,41.894745,-87.756895
537,Kenton Ave & Madison St,11,41.880708,-87.741018
462,Winchester (Ravenswood) Ave & Balmoral Ave,15,41.979762,-87.67753
533,Central Park Blvd & 5th Ave,11,41.875679,-87.71547
170,Clinton St & 18th St,15,41.85795,-87.640826
225,Halsted St & Dickens Ave,23,41.919936,-87.64883
283,LaSalle St & Jackson Blvd,35,41.878166,-87.631929
481,California Ave & Montrose Ave,15,41.961068,-87.695439
154,Southport Ave & Belmont Ave,15,41.93947775,-87.66374767
193,State St & 29th St,11,41.841707,-87.626938
530,Laramie Ave & Kinzie St,11,41.887832,-87.755527
255,Indiana Ave & Roosevelt Rd,39,41.867888,-87.623041
450,Warren Park West,11,42.001785,-87.688829
1.67419E+18,Public Rack - Ashland Ave & 73rd St,1,41.760817,-87.663499
130,Damen Ave & Division St,19,41.903266,-87.678435
53,Wells St & Huron St,27,41.894722,-87.634362
123,California Ave & Milwaukee Ave,15,41.922695,-87.697153
314,Ravenswood Ave & Berteau Ave,15,41.957921,-87.673567
94,Clark St & Armitage Ave,31,41.918306,-87.636282
489,Drake Ave & Addison St,15,41.947326,-87.717582
493,Western Ave & Roscoe St,11,41.943034,-87.687288
460,Clark St & Bryn Mawr Ave,15,41.983593,-87.669154
72,Wabash Ave & 16th St,39,41.860384,-87.625813
215,Damen Ave & Madison St,15,41.88137,-87.67493
587,Wabash Ave & 83rd St,11,41.74384407,-87.62276888
163,Damen Ave & Clybourn Ave,15,41.931931,-87.677856
128,Damen Ave & Chicago Ave,19,41.895769,-87.67722
525,Glenwood Ave & Touhy Ave,15,42.012701,-87.666058
249,Montrose Harbor,31,41.963982,-87.638181
119,Ashland Ave & Lake St,19,41.88592,-87.66717
496,Avers Ave & Belmont Ave,11,41.939408,-87.723574
207,Emerald Ave & 28th St,15,41.84358,-87.645368
518,Conservatory Dr & Lake St,11,41.885502,-87.716866
559,Racine Ave & Garfield Blvd,11,41.794228,-87.655073
312,Clarendon Ave & Gordon Ter,15,41.95786652,-87.64950514
22,May St & Taylor St,15,41.8694821,-87.6554864
553,Elizabeth St & 47th St,11,41.80839,-87.656526
584,Ellis Ave & 83rd St,11,41.744123,-87.599034
636,Orleans St & Hubbard St,11,41.890028,-87.636618
582,Phillips Ave & 83rd St,11,41.744531,-87.56506
15,Racine Ave & 18th St,15,41.858166,-87.656495
538,Cicero Ave & Flournoy St,11,41.872131,-87.746619
205,Paulina St & 18th St,15,41.857901,-87.668745
253,Winthrop Ave & Lawrence Ave,15,41.968812,-87.657659
343,Racine Ave & Wrightwood Ave,15,41.928887,-87.658971
497,Kimball Ave & Belmont Ave,15,41.939398,-87.711561
126,Clark St & North Ave,15,41.911974,-87.631942
541,Central Ave & Harrison St,11,41.872993,-87.764499
144,Larrabee St & Webster Ave,19,41.921822,-87.64414
4,Burnham Harbor,23,41.85741179,-87.61379153
601,Central St Metra,15,42.063598,-87.69873
567,May St & 69th St,11,41.768938,-87.652934
594,Western Blvd & 48th Pl,11,41.805661,-87.683392
179,MLK Jr Dr & Pershing Rd,15,41.8246,-87.61678
345,Lake Park Ave & 56th St,19,41.793242,-87.587782
16,Paulina Ave & North Ave,15,41.90985465,-87.66993016
73,Jefferson St & Monroe St,19,41.88032963,-87.64274597
182,Wells St & Elm St,23,41.903222,-87.634324
61,Wood St & Milwaukee Ave,19,41.907655,-87.672552
544,Austin Blvd & Madison St,11,41.880281,-87.774453
336,Cottage Grove Ave & 47th St,15,41.809855,-87.606755
396,Yates Blvd & 75th St,11,41.758768,-87.56644
143,Sedgwick St & Webster Ave,15,41.922167,-87.638888
554,Damen Ave & 51st St,7,41.800908,-87.674684
565,Ashland Ave & 66th St,7,41.774074,-87.663815
100,Orleans St & Merchandise Mart Plaza,35,41.888243,-87.63639
653,Cornell Dr & Hayes Dr,11,41.780595,-87.584846
299,Halsted St & Roscoe St,15,41.94367,-87.64895
162,Damen Ave & Wellington Ave,15,41.93588,-87.67842
271,Cottage Grove Ave & 43rd St,11,41.816499,-87.606582
580,Exchange Ave & 79th St,11,41.751731,-87.552812
117,Wilton Ave & Belmont Ave,27,41.94023192,-87.65294373
483,Avondale Ave & Irving Park Rd,19,41.953393,-87.732002
645,Archer (Damen) Ave & 37th St,11,41.826712,-87.683144
264,Stetson Ave & South Water St,19,41.886835,-87.62232
303,Broadway & Cornelia Ave,23,41.945529,-87.646439
137,Morgan Ave & 14th Pl,15,41.862378,-87.651062
84,Milwaukee Ave & Grand Ave,19,41.891578,-87.648384
302,Sheffield Ave & Wrightwood Ave,31,41.928712,-87.653833
517,Clark St & Jarvis Ave,11,42.015963,-87.675005
140,Dearborn Pkwy & Delaware Pl,19,41.898969,-87.629912
432,Clark St & Lunt Ave,19,42.00901118,-87.67411172
29,Noble St & Milwaukee Ave,15,41.90068,-87.6626
520,Greenview Ave & Jarvis Ave,19,42.015962,-87.66857
223,Clifton Ave & Armitage Ave,15,41.918216,-87.656936
169,Canal St & Harrison St,15,41.874255,-87.639573
349,Halsted St & Wrightwood Ave,15,41.929143,-87.649077
88,Racine Ave & Randolph St,19,41.884069,-87.656853
577,Stony Island Ave & South Chicago Ave,11,41.751173,-87.585337
556,Throop St & 52nd St,7,41.799659,-87.657195
534,Karlov Ave & Madison St,11,41.88085,-87.727907
203,Western Ave & 21st St,15,41.854109,-87.685838
330,Lincoln Ave & Addison St,19,41.946176,-87.673308
626,Delano Ct & Roosevelt Rd,19,41.867491,-87.63219
1.67419E+18,Public Rack - Austin Ave & Wellington Ave,1,41.9352453,-87.776052
1.67419E+18,Public Rack - Bell Ave & 95th St,2,41.721188,-87.678786
268,DuSable Lake Shore Dr & North Blvd,39,41.911722,-87.626804
216,California Ave & Division St,15,41.903029,-87.697474
595,Wabash Ave & 87th St,11,41.73621877,-87.6226455
260,Kedzie Ave & Milwaukee Ave,35,41.929567,-87.707857
527,Western Ave & Howard St,15,42.018901,-87.690048
23,Orleans St & Elm St,15,41.902924,-87.637715
55,Halsted St & Roosevelt Rd,23,41.867324,-87.648625
627,LaSalle Dr & Huron St,19,41.894877,-87.632326
402,Shields Ave & 31st St,15,41.838464,-87.635406
298,Lincoln Ave & Belle Plaine Ave,15,41.95600355,-87.68016145
317,Wood St & Taylor St (Temp),23,41.86926522,-87.67373085
539,Cicero Ave & Quincy St,11,41.877613,-87.745405
106,State St & Pearson St,27,41.897448,-87.628722
204,Prairie Ave & Garfield Blvd,11,41.794853,-87.618691
77,Clinton St & Madison St,31,41.882242,-87.641066
436,Fairfield Ave & Roosevelt Rd,11,41.866624,-87.694521
333,Ashland Ave & Blackhawk St,15,41.907066,-87.667252
659,Leavitt St & Chicago Ave,15,41.895501,-87.682017
385,Princeton Ave & Garfield Blvd,11,41.794982,-87.633124
540,Laramie Ave & Madison St,11,41.880207,-87.755337
80,Aberdeen St & Monroe St,19,41.880419,-87.655519
456,2112 W Peterson Ave,11,41.991178,-87.683593
14,Morgan St & 18th St,15,41.858086,-87.651073
109,900 W Harrison St,19,41.874754,-87.649807
227,Southport Ave & Waveland Ave,23,41.94815,-87.66394
152,Lincoln Ave & Diversey Pkwy,15,41.932225,-87.658617
301,Clark St & Schiller St,19,41.907993,-87.631501
243,Lincoln Ave & Sunnyside Ave,15,41.963004,-87.684781
118,Sedgwick St & North Ave,19,41.911386,-87.638677
339,Emerald Ave & 31st St,11,41.838198,-87.645143
338,Calumet Ave & 18th St,15,41.857611,-87.619407
660,Sheridan Rd & Columbia Ave,15,42.004583,-87.661406
341,Adler Planetarium,39,41.866095,-87.607267
663,Lincolnwood Dr & Central St,15,42.064854,-87.715297
174,Canal St & Madison St,35,41.882091,-87.639833
92,Carpenter St & Huron St,19,41.894556,-87.653449
213,Leavitt St & North Ave,15,41.91050937,-87.68238902
591,Kilbourn Ave & Milwaukee Ave,15,41.94707089,-87.74000824
625,Dodge Ave & Main St,15,42.03463185,-87.6991877
86,Eckhart Park,19,41.89637337,-87.66098386
295,Broadway & Argyle St,19,41.973815,-87.65966
475,Washtenaw Ave & Lawrence Ave,15,41.968987,-87.696027
574,Vernon Ave & 79th St,11,41.75094,-87.61379
329,DuSable Lake Shore Dr & Diversey Pkwy,23,41.932588,-87.636427
274,Racine Ave & 15th St,15,41.861267,-87.656625
21,Aberdeen St & Jackson Blvd,23,41.87772613,-87.65478743
214,Damen Ave & Grand Ave,23,41.89239445,-87.67688513
52,Michigan Ave & Lake St,35,41.886024,-87.624117
604,Sheridan Rd & Noyes St (NU),15,42.058239,-87.677432
262,Halsted St & 37th St,11,41.827059,-87.64572
244,Ravenswood Ave & Irving Park Rd,19,41.95469,-87.67393
550,Central Ave & Chicago Ave,11,41.894958,-87.764902
666,Cherry Ave & Blackhawk St,15,41.907221,-87.655618
657,Wood St & Augusta Blvd,15,41.899181,-87.6722
198,Green St & Madison St,27,41.881892,-87.648789
177,Theater on the Lake,31,41.926277,-87.630834
470,Kedzie Ave & Foster Ave,11,41.975672,-87.709261
586,MLK Jr Dr & 83rd St,11,41.743116,-87.6148
190,Southport Ave & Wrightwood Ave,15,41.928773,-87.663913
238,Wolcott (Ravenswood) Ave & Montrose Ave,15,41.961406,-87.676169
277,Ashland Ave & Grand Ave,15,41.891072,-87.666611
590,Kilbourn Ave & Irving Park Rd,11,41.953733,-87.740569
165,Clark St & Grace St,23,41.95078,-87.659172
528,Pulaski Rd & Lake St,11,41.885409,-87.726491
59,Wabash Ave & Roosevelt Rd,23,41.867227,-87.625961
321,Wabash Ave & 9th St,19,41.870769,-87.625734
313,Lakeview Ave & Fullerton Pkwy,19,41.925858,-87.638973
588,South Chicago Ave & 83rd St,11,41.743921,-87.575225
47,State St & Kinzie St,31,41.88937547,-87.62707651
111,Sedgwick St & Huron St,27,41.894666,-87.638437
247,Shore Dr & 55th St,19,41.795212,-87.580715
405,Wentworth Ave & 35th St,15,41.830777,-87.632504
568,Vincennes Ave & 75th St,7,41.75797,-87.63121
136,Racine Ave & 13th St,15,41.865054,-87.656959
191,Canal St & Monroe St,27,41.88169,-87.63953
18,Wacker Dr & Washington St,15,41.88314336,-87.63724208
257,Lincoln Ave & Waveland Ave,15,41.948797,-87.675278
218,Wells St & 19th St,11,41.856802,-87.633879
230,Wood St & Webster Ave,19,41.92105673,-87.67279744
351,Cottage Grove Ave & 51st St,15,41.803038,-87.606615
293,Broadway & Wilson - Truman College Vaccination Site,23,41.965221,-87.658139
281,Western Ave & 24th St,7,41.84847,-87.685109
575,Cottage Grove Ave & 78th St,11,41.753174,-87.605026
167,Damen Ave & Coulter St,7,41.8492,-87.67564
261,Hermitage Ave & Polk St,15,41.871514,-87.669886
164,Franklin St & Lake St,27,41.885837,-87.6355
558,Ashland Ave & Garfield Blvd,11,41.792822,-87.664429
564,Racine Ave & 65th St,11,41.775393,-87.654308
113,Sheridan Rd & Argyle St,15,41.97328682,-87.65475959
116,Western Ave & Winnebago Ave,15,41.91552,-87.687022
529,Cicero Ave & Lake St,11,41.886841,-87.745261
310,Damen Ave & Charleston St,11,41.920082,-87.677855
531,Central Ave & Lake St,11,41.887664,-87.765469
292,Southport Ave & Clark St,11,41.957081,-87.664199
630,Kildare Ave & Montrose Ave,15,41.96108,-87.73569
246,Ashland Ave & Belle Plaine Ave,11,41.956057,-87.668835
146,Loomis St & Jackson Blvd,19,41.877945,-87.662007
166,Ashland Ave & Wrightwood Ave,15,41.92883,-87.668507
514,Ridge Blvd & Howard St,11,42.019276,-87.68452
196,Cityfront Plaza Dr & Pioneer Ct,31,41.890573,-87.622072
305,Western Ave & Division St,23,41.902893,-87.687275
576,Greenwood Ave & 79th St,11,41.751294,-87.597552
251,Clarendon Ave & Leland Ave,15,41.967968,-87.650001
542,Central Ave & Madison St,11,41.880121,-87.763238
652,Rhodes Ave & 71st St,11,41.766,-87.611726
201,Indiana Ave & 40th St,11,41.82168,-87.6216
331,Halsted St & Clybourn Ave,27,41.909668,-87.648128
242,Damen Ave & Leland Ave,15,41.967094,-87.679028
185,Stave St & Armitage Ave,11,41.917741,-87.691392
346,Ada St & Washington Blvd,15,41.88283,-87.661206
549,Marshfield Ave & 44th St,11,41.813996,-87.666589
592,Knox Ave & Montrose Ave,11,41.960631,-87.745359
639,Lakefront Trail & Wilson Ave,15,41.965845,-87.645361
665,South Chicago Ave & Elliot Ave,7,41.747363,-87.580046
219,Damen Ave & Cortland St,19,41.915983,-87.677335
159,Claremont Ave & Hirsch St,11,41.907781,-87.685854
423,University Ave & 57th St,31,41.791478,-87.599861
535,Pulaski Rd & Congress Pkwy,11,41.87441021,-87.72609159
224,Halsted St & Willow St,19,41.913865,-87.648755
202,Halsted St & 18th St,15,41.85750568,-87.64599145
222,Milwaukee Ave & Rockwell St,19,41.92019556,-87.6926592
138,Clybourn Ave & Division St,15,41.904613,-87.640552
20,Sheffield Ave & Kingsbury St,15,41.910522,-87.653106
233,Sangamon St & Washington Blvd,15,41.883165,-87.6511
108,Halsted St & Polk St,19,41.87184,-87.64664
557,Seeley Ave & Garfield Blvd,11,41.794087,-87.675478
623,Michigan Ave & 8th St,43,41.872773,-87.623981
290,Kedzie Ave & Palmer Ct,15,41.921525,-87.707322
178,State St & 19th St,15,41.856594,-87.627542
279,Halsted St & 35th St,15,41.830661,-87.647172
110,Dearborn St & Erie St,27,41.893992,-87.629318
342,Wolcott Ave & Polk St,23,41.871262,-87.673688
465,Marine Dr & Ainslie St,23,41.9716,-87.650154
93,Sheffield Ave & Willow St,15,41.913688,-87.652855
548,Morgan St & Pershing Rd,7,41.823613,-87.650931
275,Ashland Ave & 13th St,15,41.865234,-87.666507
536,Kostner Ave & Lake St,11,41.885928,-87.73541
28,Larrabee St & Menomonee St,15,41.91468,-87.64332
571,Vernon Ave & 75th St,11,41.758361,-87.614138
45,Michigan Ave & Ida B Wells Dr,15,41.876243,-87.624426
621,Aberdeen St & Randolph St,15,41.884114,-87.654264
195,Columbus Dr & Randolph St,55,41.884728,-87.619521
5,State St & Harrison St,23,41.874053,-87.627716
628,Walsh Park,23,41.91461,-87.667968
546,Damen Ave & Pershing Rd,11,41.823192,-87.676597
602,Central St & Girard Ave,15,42.064313,-87.686152
605,University Library (NU),15,42.052939,-87.673447
600,Dodge Ave & Church St,15,42.048308,-87.698224
265,Cottage Grove Ave & Oakwood Blvd,15,41.822985,-87.6071
33,State St & Van Buren St,27,41.877181,-87.627844
186,Ogden Ave & Race Ave,15,41.891795,-87.658751
440,Central Park Ave & 24th St,11,41.8481,-87.715068
347,Ashland Ave & Grace St,15,41.950687,-87.6687
344,Ravenswood Ave & Lawrence Ave,47,41.96909,-87.674237
309,Leavitt St & Armitage Ave,11,41.917805,-87.682437
579,Phillips Ave & 79th St,11,41.75182,-87.565211
267,Lake Park Ave & 47th St,15,41.809443,-87.591875
324,Stockton Dr & Wrightwood Ave,15,41.93132,-87.638742
620,Orleans St & Chestnut St (NEXT Apts),15,41.898203,-87.637536
250,Ashland Ave & Wellington Ave,19,41.936083,-87.669807
297,Paulina St & Montrose Ave,15,41.961507,-87.671387
304,Broadway & Waveland Ave,15,41.949074,-87.648636
401,Shields Ave & 28th Pl,11,41.842733,-87.635491
97,Field Museum,55,41.865312,-87.617867
477,Manor Ave & Leland Ave,11,41.965875,-87.700825
315,Elston Ave & Wabansia Ave,23,41.912919,-87.664169
51,Clark St & Randolph St,43,41.88457623,-87.63188991
209,Normal Ave & Archer Ave,11,41.849527,-87.640591
276,California Ave & North Ave,11,41.9104754,-87.6968944
318,Southport Ave & Irving Park Rd,15,41.954177,-87.664358
394,Clark St & 9th St (AMLI),15,41.870816,-87.631246
578,Bennett Ave & 79th St,11,41.751785,-87.578496
91,Clinton St & Washington Blvd,31,41.88338,-87.64117
340,Clark St & Wrightwood Ave,15,41.929546,-87.643118
107,Desplaines St & Jackson Blvd,27,41.8781189,-87.6439476
488,Pulaski Rd & Eddy St (Temp),11,41.946264,-87.731023
125,Rush St & Hubbard St,23,41.890173,-87.626185
417,Cornell Ave & Hyde Park Blvd,19,41.802406,-87.586924
429,Cottage Grove Ave & 67th St,11,41.77372095,-87.60563486
234,Clark St & Montrose Ave,19,41.961588,-87.666036
240,Sheridan Rd & Irving Park Rd,27,41.954245,-87.654406
263,Rhodes Ave & 32nd St,11,41.836208,-87.613533
598,Elmwood Ave & Austin St,15,42.025784,-87.684107
593,Halsted St & 59th St,11,41.787539,-87.644874
160,Campbell Ave & North Ave,15,41.910535,-87.689556
121,Blackstone Ave & Hyde Park Blvd,19,41.802562,-87.590368
355,South Shore Dr & 67th St,15,41.773643,-87.567514
141,Clark St & Lincoln Ave,23,41.915689,-87.6346
272,Indiana Ave & 31st St,11,41.838842,-87.621857
288,Larrabee St & Armitage Ave,15,41.918084,-87.643749
68,Clinton St & Tilden St,23,41.875885,-87.640795
241,Morgan St & Polk St,19,41.871737,-87.65103
603,Chicago Ave & Sheridan Rd,15,42.050491,-87.677821
175,Wells St & Polk St,19,41.87273154,-87.63351649
32,Racine Ave & Congress Pkwy,19,41.87464,-87.65703
287,Franklin St & Monroe St,31,41.880317,-87.635185
237,MLK Jr Dr & 29th St,19,41.842052,-87.617
81,Daley Center Plaza,20,41.884241,-87.629634
231,Sheridan Rd & Montrose Ave,23,41.96167,-87.65464
176,Clark St & Elm St,39,41.902973,-87.63128
248,Woodlawn Ave & 55th St,19,41.795264,-87.596471
328,Ellis Ave & 58th St,19,41.788746,-87.601334
171,May St & Cullerton St,11,41.855136,-87.654127
306,Sheridan Rd & Buena Ave,19,41.958494,-87.654966
120,Wentworth Ave & Cermak Rd,19,41.85308456,-87.63193131
180,Ritchie Ct & Banks St,15,41.906866,-87.626217
583,Stony Island Ave & 82nd St,11,41.746559,-87.586005
48,Larrabee St & Kingsbury St,43,41.897764,-87.642884
129,Blue Island Ave & 18th St,15,41.857556,-87.661535
131,Lincoln Ave & Belmont Ave (Temp),15,41.93953162,-87.67111436
254,Pine Grove Ave & Irving Park Rd,15,41.954383,-87.648043
416,Dorchester Ave & 49th St,15,41.805772,-87.592464
326,Clark St & Leland Ave,19,41.96705643,-87.66699046
188,Greenview Ave & Fullerton Ave,15,41.92533,-87.6658
27,Larrabee St & North Ave,19,41.91021,-87.6435
181,LaSalle St & Illinois St,31,41.890762,-87.631697
307,Southport Ave & Clybourn Ave,15,41.920771,-87.663712
552,Ashland Ave & McDowell Ave,11,41.80887,-87.66454
206,Halsted St & Archer Ave,15,41.847203,-87.646795
258,Logan Blvd & Elston Ave,27,41.929465,-87.684158
282,Halsted St & Maxwell St,15,41.864883,-87.647071
85,Michigan Ave & Oak St,23,41.90096039,-87.62377664
252,Greenwood Ave & 47th St,15,41.809835,-87.599383
551,Hoyne Ave & 47th St,11,41.808227,-87.67718
197,Michigan Ave & Madison St,19,41.882134,-87.625125
570,Evans Ave & 75th St,7,41.75849,-87.60641
597,Chicago Ave & Washington St,15,42.032562,-87.679101
229,Southport Ave & Roscoe St,19,41.943739,-87.66402
199,Wabash Ave & Grand Ave,31,41.891466,-87.626761
284,Michigan Ave & Jackson Blvd,23,41.87785,-87.62408
232,Pine Grove Ave & Waveland Ave,23,41.94947274,-87.64645279
245,Clarendon Ave & Junior Ter,23,41.961004,-87.649603
6,Dusable Harbor,39,41.886976,-87.612813
619,Keystone Ave & Fullerton Ave,11,41.92459,-87.72785
599,Valli Produce - Evanston Plaza,15,42.039742,-87.699413
19,Throop St & Taylor St,15,41.868968,-87.659141
585,Cottage Grove Ave & 83rd St,11,41.743441,-87.604836
46,Wells St & Walton St,19,41.89993001,-87.63443007
452,Western Ave & Granville Ave,11,41.99416137,-87.68943828
148,State St & 33rd St,15,41.834734,-87.625813
400,Cottage Grove Ave & 71st St,11,41.76571904,-87.60495971
30,Ashland Ave & Augusta Blvd,15,41.899643,-87.6677
308,Seeley Ave & Roscoe St,11,41.943403,-87.679618
158,Milwaukee Ave & Wabansia Ave,15,41.912616,-87.681391
183,Damen Ave & Thomas St (Augusta Blvd),23,41.901315,-87.677409
150,Fort Dearborn Dr & 31st St,27,41.838556,-87.608218
589,Milwaukee Ave & Cuyler Ave,11,41.954468,-87.749594
153,Southport Ave & Wellington Ave,19,41.935733,-87.663576
25,Michigan Ave & Pearson St,23,41.89766,-87.62351
383,Paulina St & Flournoy St,31,41.87295,-87.66913
519,Wolcott Ave & Fargo Ave,11,42.016977,-87.677725
285,Wood St & Hubbard St,19,41.889899,-87.671473
332,Burling St & Diversey Pkwy,19,41.93314,-87.64776
76,DuSable Lake Shore Dr & Monroe St,39,41.880958,-87.616743
95,Stony Island Ave & 64th St,11,41.778881,-87.586647
526,Oakley Ave & Touhy Ave,11,42.012342,-87.688243
291,Wells St & Evergreen Ave,19,41.906724,-87.63483
13,Wilton Ave & Diversey Pkwy,35,41.932418,-87.652705
112,Green St & Washington Blvd,11,41.88318131,-87.64872462
311,Leavitt St & Lawrence Ave,19,41.968885,-87.684001
569,Woodlawn Ave & 75th St,11,41.75916,-87.595751
622,California Ave & Cortez St,15,41.900363,-87.696704
17,Honore St & Division St,23,41.903119,-87.673935
337,Clark St & Chicago Ave,19,41.89675,-87.63089
545,Kostner Ave & Adams St,11,41.877917,-87.735737
66,Clinton St & Lake St,23,41.885637,-87.641823
256,Broadway & Sheridan Rd,15,41.952833,-87.649993
122,Ogden Ave & Congress Pkwy,15,41.87501,-87.67328
522,Bosworth Ave & Howard St,11,42.019537,-87.669563
42,Wabash Ave & Cermak Rd,11,41.852619,-87.626488
335,Calumet Ave & 35th St,15,41.831379,-87.618034
624,Dearborn St & Van Buren St,15,41.876268,-87.629155
572,State St & 76th St,11,41.756971,-87.624621
273,Michigan Ave & 18th St,23,41.857813,-87.62455
26,New St & Illinois St,31,41.89084704,-87.61861682
573,State St & 79th St,11,41.750794,-87.624424
90,Millennium Park,47,41.8810317,-87.62408432
200,MLK Jr Dr & 47th St,11,41.809851,-87.616279
492,Leavitt St & Addison St,15,41.946655,-87.683359
563,Ashland Ave & 63rd St,11,41.779374,-87.664843
547,Ashland Ave & Pershing Rd,11,41.823465,-87.665577
236,Sedgwick St & Schiller St,15,41.907626,-87.638566
323,Sheridan Rd & Lawrence Ave,15,41.969517,-87.654691
515,Paulina St & Howard St,19,42.019159,-87.673573
280,Morgan St & 31st St,11,41.8378,-87.65114
543,Laramie Ave & Gladys Ave,11,41.875806,-87.755285
562,Racine Ave & 61st St,11,41.783189,-87.654372
581,Commercial Ave & 83rd St,11,41.744615,-87.551208
661,Evanston Civic Center,15,42.057044,-87.686554
210,Ashland Ave & Division St,27,41.90345,-87.667747
228,Damen Ave & Melrose Ave,15,41.9406,-87.6785
294,Broadway & Berwyn Ave,15,41.978353,-87.659753
149,Calumet Ave & 33rd St,11,41.8349,-87.61793
631,Malcolm X College Vaccination Site,19,41.877618,-87.673895
87,Racine Ave & Fullerton Ave,19,41.92556258,-87.65840426
142,McClurg Ct & Erie St,31,41.894503,-87.617854
114,Sheffield Ave & Waveland Ave,27,41.949399,-87.654529
226,Racine Ave & Belmont Ave,15,41.939743,-87.658865
101,63rd St Beach,15,41.78091096,-87.57632375
103,Clinton St & Polk St,15,41.87146652,-87.64094913
11,Jeffery Blvd & 71st St,11,41.76663824,-87.57645011
377,Kedzie Ave & Lake St,15,41.88460329,-87.70630374
378,California Ave & Lake St,11,41.88445396,-87.69629814
381,Western Ave & Monroe St,15,41.87978771,-87.68611281
44,State St & Randolph St,23,41.88462107,-87.62783423
439,Kedzie Ave & 21st St,11,41.85353363,-87.70507303
495,Keystone Ave & Montrose Ave,11,41.96110802,-87.7289701
762,Green St & Randolph St*,12,41.88360166,-87.64862672
501,Richmond St & Diversey Ave,15,41.93190197,-87.70119513
494,Kedzie Ave & Bryn Mawr Ave,15,41.98222976,-87.70888656
499,Kosciuszko Park,15,41.93058537,-87.72377736
50,Clark St & Ida B Wells Dr,35,41.87593267,-87.63058454
500,Central Park Ave & Elbridge Ave,15,41.93533728,-87.71688929
147,Indiana Ave & 26th St,15,41.845687,-87.622481
168,Michigan Ave & 14th St,19,41.864059,-87.623727
414,Canal St & Taylor St,15,41.870257,-87.639474
498,California Ave & Fletcher St,19,41.93842879,-87.69800776
388,Halsted & 63rd - Kennedy-King Vaccination Site,11,41.77938114,-87.64462082
1.67419E+18,Public Rack - Bennett Ave & 96th St,2,41.720476,-87.577512
1.67419E+18,Public Rack - Calumet Ave & 71st St,2,41.765537,-87.617305
1.67419E+18,Public Rack - Chappel Ave & 71st St,2,41.766366,-87.575287
3,Shedd Aquarium,55,41.86722596,-87.61535539
1.71582E+18,Public Rack - Brainerd Park,2,41.726942,-87.654896
1.71582E+18,Public Rack - May St & 87th St,1,41.73556,-87.651701
1.67419E+18,Public Rack - Christiana Ave & 55th St,1,41.793307,-87.707702
1.67419E+18,Public Rack - Claremont Ave & 71st St,1,41.764585,-87.682253
1.67419E+18,Public Rack - Cottage Grove Ave & 98th St,1,41.716172,-87.60435
1.67419E+18,Public Rack - Damen Ave & 80th St,2,41.748301,-87.673213
1.67419E+18,Public Rack - Damen Ave & 84th St,1,41.740435,-87.673246
1.67419E+18,Public Rack - East End Ave & 75th St,2,41.75893,-87.582861
1.67419E+18,Public Rack - Eggleston Ave & 115th St,3,41.68497,-87.633848
1.67419E+18,Public Rack - Eggleston Ave & 92nd St,2,41.726182,-87.63466
1.67419E+18,Public Rack - Emil G Hirch Metropolitan High School,2,41.754442,-87.601745
1.67419E+18,Public Rack - Evans Ave & 63rd St,2,41.780506,-87.607519
1.67419E+18,Public Rack - Ewing Ave & 106th St NW,1,41.70287,-87.535861
1.67419E+18,Public Rack - Exchange Ave & 131st St,1,41.65717,-87.552594
1.67419E+18,Public Rack - Halsted St & 63rd St,1,41.779945,-87.641378
1.67419E+18,Public Rack - Halsted St & 64th St,2,41.777436,-87.644535
1.67419E+18,Public Rack - Halsted St & 76th St,4,41.756003,-87.64409
1.67419E+18,Public Rack - Halsted St & 77th St,1,41.753637,-87.643918
1.67419E+18,Public Rack - Halsted St & 94th St,1,41.723442,-87.643612
1.67419E+18,Public Rack - Halsted St & 95th St - SE,3,41.721004,-87.643031
1.67419E+18,Public Rack - Hamilton Ave & 95th St,2,41.720832,-87.676382
1.67419E+18,Public Rack - Harold Washington Park,3,41.801089,-87.584791
1.67419E+18,Public Rack - Harper Ave & 63rd St,6,41.780728,-87.587566
1.67419E+18,Public Rack - Hermitage & 83rd St,1,41.743027,-87.666272
1.67419E+18,Public Rack - Honore St & 87th St,1,41.736093,-87.669404
1.67419E+18,Public Rack - Honore St & 87th St - SE,1,41.735485,-87.668889
1.67419E+18,Public Rack - Hyde Park Blvd & 53rd St,6,41.799468,-87.584206
1.67419E+18,Public Rack - Hyde Park Blvd & 55th St,1,41.795,-87.584113
1.67419E+18,Public Rack - James Madison School,2,41.759876,-87.590638
1.67419E+18,Public Rack - Jeffery Blvd & 67th St,1,41.773259,-87.576664
1.67419E+18,Public Rack - Jeffrey Blvd & 71st St,1,41.766333,-87.576154
1.67419E+18,Public Rack - Kedvale Ave & 63rd St E,2,41.778768,-87.725957
1.67419E+18,Public Rack - Kedzie Ave & 61st Pl E,1,41.782281,-87.703047
1.67419E+18,Public Rack - Kedzie Ave & 63rd St,1,41.778865,-87.703029
1.67419E+18,Public Rack - Kedzie Ave & 64th St - SE,1,41.776985,-87.702916
1.67419E+18,Public Rack - Kedzie Ave & 64th St - SW,2,41.777031,-87.703223
1.67419E+18,Public Rack - Keef Ave & South Chicago Ave,1,41.7707,-87.611706
1.67419E+18,Public Rack - Keeler Ave & Madison St S,3,41.880531,-87.731063
1.67419E+18,Public Rack - Kildare Ave & 63rd St,2,41.778442,-87.73047
1.58224E+18,California Ave & Marquette Rd,1,41.7715789,-87.6933566
1.58224E+18,Spaulding Ave & 63rd St,1,41.7791655,-87.7056392
1.58224E+18,Western Ave & 62nd St,1,41.780985,-87.6834204
1.67419E+18,Public  Rack - Albany Ave & 63rd St,1,41.778906,-87.70084
1.67419E+18,Public Rack - 63rd & Western Ave N,1,41.779334,-87.683768
1.67419E+18,Public Rack - Hamilton Park,1,41.76335,-87.637499
1.68353E+18,Public Rack - Eberhart Ave & 61st St,1,41.783745,-87.612919
1.68353E+18,Public Rack - Lake Shore Dr & Hayes Dr,1,41.780581,-87.574562
1.68353E+18,Public Rack - Kingston Ave & 75th St,1,41.758905,-87.562188
1.68353E+18,Public Rack - Lawndale Ave & 63rd St,1,41.7787155,-87.7140552
1.68353E+18,Public Rack - South Shore Dr & 71st St,2,41.766206,-87.562789
1.68353E+18,Public Rack - Vincennes Ave & 77th St,1,41.75702837,-87.56497151
1.69578E+18,Public Rack - Western Ave & 107th St,1,41.698728,-87.681558
1.69578E+18,Public Rack - Western Ave & 110th St,3,41.69442,-87.681547
1.69578E+18,Public Rack - 10557 S Western Ave,2,41.701719,-87.68128
1.69578E+18,Public Rack - Western Ave & 107th Pl,1,41.698022,-87.681175
1.69578E+18,Public Rack - Western Ave & 96th St,1,41.718621,-87.681516
1.69578E+18,Public Rack - Western Ave & 98th St,1,41.71525,-87.681698
1.69578E+18,Public Rack - Ashland Ave & 83rd St,1,41.742715,-87.663551
1.69578E+18,Public Rack - King Dr & 71st St,2,41.765862,-87.614787
1.69578E+18,Public Rack - Prairie Ave & 78th St,3,41.752229,-87.617995
1.69578E+18,Public Rack - Ashland Ave & 63rd St,1,41.779127,-87.664039
1.69578E+18,Public Rack - Michigan Ave & 67th St,2,41.772068,-87.621686
1.69578E+18,Public Rack - Marquette Rd & 67th St,2,41.773095,-87.612886
1.69578E+18,Public Rack - Champlain Ave & 65th St,2,41.775904,-87.609301
1.71582E+18,Public Rack - Whipple St & 63rd St,1,41.77888,-87.699811
1.71582E+18,Public Rack - Pulaski Rd & 65th St,2,41.773551,-87.722805
1.71585E+18,Public Rack - Kedvale Ave & 26th St,1,41.844265,-87.728103
1.71582E+18,Public Rack - Kedzie Ave & 54th Pl,1,41.794639,-87.703767
1.71585E+18,Public Rack - Kedzie Ave & Walnut St,1,41.885891,-87.706425
1.71582E+18,Public Rack - Maplewood Ave & 47th St,1,41.808413,-87.688535
1.71582E+18,Public Rack - Homan Ave & 62nd Pl,1,41.779668,-87.707834
1.71582E+18,Public Rack - Laflin St &51st ST,2,41.801354,-87.662076
1.71585E+18,Public Rack - Lawndale Ave & 23rd St,2,41.849956,-87.716712
1.71585E+18,Public Rack - Division St & Christiana Ave,2,41.90254,-87.71085
1.71582E+18,Public Rack - Maplewood Ave & 63rd St,1,41.779343,-87.686763
1.71585E+18,Public Rack - Grand Ave & Lawndale Ave,2,41.9035,-87.7204
1.71585E+18,Public Rack - Independence Blvd & Roosevelt,1,41.8662123,-87.7184969
1.71582E+18,Public Rack - Hoyne Ave & 51st St,2,41.801001,-87.676773
1.71585E+18,Public Rack - Homan Ave & Roosevelt,1,41.86649,-87.710786
1.71585E+18,Public Rack - Kildare Ave & North Ave,1,41.909866,-87.73399
1.71585E+18,Public Rack - Washington Park Ct & 51st St,2,41.8021917,-87.6151444
1.71582E+18,Public Rack - Talman Ave & Pershing Rd,1,41.822592,-87.690725
1.71582E+18,Public Rack - Oakley Ave & 50th Pl,1,41.80193,-87.680903
1.71585E+18,Public Rack - Pulaski Rd & Grenshaw St,1,41.8670279,-87.7254644
1.71585E+18,Public Rack - Rockwell & Division,1,41.90282,-87.692397
1.71582E+18,Public Rack - Kedzie Ave & 60th St,1,41.785235,-87.703131
1.71582E+18,Public Rack - Lawndale & 63rd St,1,41.777732,-87.713878
1.71582E+18,Public Rack - Sangamon St & 87th St,1,41.73582,-87.646896
1.71585E+18,Public Rack - Central Park Ave & Fulton Blvd,2,41.8861512,-87.7155114
1.71582E+18,Public Rack - Throop St & 48t ST,1,41.806999,-87.657942
1.71585E+18,Public Rack - Kedzie Ave & Chicago Ave,1,41.89556,-87.70641
1.71582E+18,Public Rack - Western Ave & 62nd St,1,41.780964,-87.683757
1.71585E+18,Public Rack - Komensky Ave & 26th St,1,41.844168,-87.726317
1.71585E+18,Public Rack - St Louis Ave & Flournoy St,1,41.8727811,-87.7131562
1.71582E+18,Public Rack - Western Ave & 47th Pl,1,41.808038,-87.684709
1.71582E+18,Public Rack - Western Blvd & 52nd St,1,41.798974,-87.681909
1.71582E+18,Public Rack - Komensky Ave & 63rd St,1,41.77882,-87.723599
1.71585E+18,Public Rack - Sawyer Ave & Chicago Ave,1,41.8954597,-87.7080933
1.71582E+18,Public Rack - Loomis Blvd & 47th St,1,41.808746,-87.66026
1.71582E+18,Public Rack - Fairfield Ave & 63rd St,1,41.77926,-87.692703
1.71582E+18,Public Rack - Kedzie Ave & 62nd Pl,1,41.780148,-87.703338
1.67419E+18,Public Rack - Cottage Grove Ave & 75th St,1,41.758739,-87.605769
1.67419E+18,Public Rack - Menard Ave & Adams Blvd,2,41.877684,-87.769356
1.67419E+18,Pubic Rack - Pulaski Rd & 41st,2,41.81791,-87.72413
1.67419E+18,Public Rack - Pulaski Rd & 44th St,2,41.8129,-87.7225
1.67419E+18,Public Rack - The Montessori School of Englewood,2,41.76766,-87.66781
1.67419E+18,Public Rack - Vincennes Ave & 95th Pl,1,41.720562,-87.650971
1.67419E+18,Public Rack - Vincennes Ave & 95th St,1,41.721168,-87.650663
1.67725E+18,Public Rack - Ada St & 119th St,1,41.677326,-87.654473
1.67725E+18,Public Rack - Pullman Community Center,1,41.70428,-87.59313
1.67725E+18,Public Rack - Pullman - Walmart,1,41.69696,-87.59829
1.67725E+18,Public Rack - Pullman - Ross Dress for Less,1,41.69868,-87.597
1.67725E+18,Public Rack - 10101 S Stony Island Ave,2,41.70838,-87.581455
1.67725E+18,Public Rack - Torrence Ave & 103rd St,1,41.70843,-87.56026
1.67725E+18,Public Rack - Bensley Ave & 103rd St,1,41.7084,-87.56319
1.67725E+18,Public Rack - Michigan Ave & 125th Pl,1,41.666395,-87.619933
1.67725E+18,Public Rack - Michigan Ave & 119th St,1,41.677934,-87.620754
1.67725E+18,Public Rack - Michigan Ave & 121st St,1,41.67413,-87.620448
212,Wells St & Hubbard St,31,41.889906,-87.634266
560,Marshfield Ave & 59th St,11,41.786833,-87.666215
1.67419E+18,Public Rack - Kimbark Ave & 63rd St,2,41.780667,-87.594212
1.67419E+18,Public Rack - Kimbark Ave & 67th St,2,41.774045,-87.594322
1.67419E+18,Public Rack - Kolin Ave & Archer Ave,2,41.800514,-87.731802
1.67419E+18,Public Rack - Kostner Ave & Lake St,1,41.885708,-87.735424
1.67419E+18,Public Rack - Lafayette Ave & 87th St - NW,1,41.736354,-87.626741
1.67419E+18,Public Rack - Lowe Park,2,41.799605,-87.641464
1.67419E+18,Public Rack - Marshfield Ave & 45th St,1,41.812343,-87.666239
1.67419E+18,Public Rack - Marquette Ave & 79th St,1,41.75163,-87.558707
1.67419E+18,Public Rack - Marshfield Ave & 87th St,1,41.735527,-87.663867
1.67419E+18,Public Rack - Martin Luther King Dr & 69th St,1,41.769234,-87.615206
1.67419E+18,Public Rack - Mason Ave & Roosevelt Rd,1,41.865608,-87.772389
1.67419E+18,Public Rack - May St & 63rd St,1,41.77977,-87.652943
1.67419E+18,Public Rack - May St & 78th St,1,41.752451,-87.652969
1.67419E+18,Public Rack - Menard Ave & Agusta Blvd,1,41.898333,-87.770501
1.67419E+18,Public Rack - Menard Ave & Madison St,2,41.880021,-87.770325
1.67419E+18,Public Rack - Michigan Ave & 102nd St,1,41.7083,-87.61984
1.67419E+18,Public Rack - Michigan Ave & 110th St,1,41.694364,-87.620715
1.67419E+18,Public Rack - Michigan Ave & 113th St,1,41.688872,-87.620879
1.67419E+18,Public Rack - Michigan Ave & 96th St,3,41.718957,-87.62067
1.67419E+18,Public Rack - Midway Orange Line,1,41.785894,-87.738031
1.67419E+18,Public Rack - Morgan St & 103rd St,2,41.706657,-87.647476
1.67419E+18,Public Rack - Morgan St & 87th St,1,41.73577,-87.648133
1.67419E+18,Public Rack - Morgan St & 95th St,2,41.721215,-87.647435
1.67419E+18,Public Rack - Mt Greenwood Library N,2,41.693027,-87.701054
1.67419E+18,Public Rack - Mt Greenwood Library - South,2,41.692883,-87.701048
1.67419E+18,Public Rack - Muskegon Ave & 89th St,1,41.733044,-87.555652
1.67419E+18,Public Rack - N Narragansett Ave & Grand Ave,1,41.9225804,-87.7849799
1.67419E+18,Public Rack - N Sayre Ave & W Belden Ave,1,41.921425,-87.800825
1.67419E+18,Public Rack - Nagle Ave & Belmont Ave,1,41.938201,-87.787415
1.67419E+18,Public Rack - Neva Ave & Grand Ave,1,41.923604,-87.804659
1.67419E+18,Public Rack - New England Ave & Grace St,1,41.949269,-87.798395
1.67419E+18,Public Rack - Newcastle Ave & Belden Ave,1,41.921017,-87.797388
1.67419E+18,Public Rack - Newcastle Ave & Belmont Ave,2,41.938022,-87.7961
1.67419E+18,Public Rack - Newcastle Ave & Wellington Ave,1,41.934997,-87.795777
1.67419E+18,Public Rack - Newland Ave & Diversey Ave,1,41.93098,-87.79944
1.67419E+18,Public Rack - Nordica Ave & Addison St,1,41.945428,-87.803458
1.67419E+18,Public Rack - Normal Ave & 72nd St,4,41.763584,-87.637213
1.67419E+18,Public Rack - Oakley & 79th Pl,1,41.749095,-87.679637
1.67419E+18,Public Rack - Oglesby Ave & 105th St,1,41.704672,-87.565519
1.67419E+18,Public Rack - Oglesby Ave & 95th St,1,41.722484,-87.565738
1.67419E+18,Public Rack - Oketo Ave & Belmont Ave,1,41.938117,-87.811862
1.67419E+18,Public Rack - Oleander Ave & Addison St,3,41.944983,-87.815865
1.67419E+18,Public Rack - Orville T Bright School,2,41.700168,-87.562148
1.67419E+18,Public Rack - Ozark Ave & Addison St,2,41.945075,-87.820037
1.67419E+18,Public Rack - Panama Ave & Forest Preserve Ave,2,41.943162,-87.82909
1.67419E+18,Public Rack - Park Manor Elementary School,3,41.766863,-87.611467
1.67419E+18,Public Rack - Parnell Ave & 103rd St,1,41.706868,-87.637208
1.67419E+18,Public Rack - Parnell Ave & 119th St,1,41.67711,-87.635677
1.67419E+18,Public Rack - Parnell Ave & 98th St,2,41.715983,-87.637067
1.67419E+18,Public Rack - Paul Revere Elementary School,3,41.764225,-87.600166
1.67419E+18,Public Rack - Peoria St & 60th St,2,41.784872,-87.647482
1.67419E+18,Public Rack - Percy Julian HS,3,41.705999,-87.65381
1.67419E+18,Public Rack - Perry Ave & 108th Pl,2,41.696967,-87.626143
1.67419E+18,Public Rack - Piotrowski Park,2,41.836682,-87.73083
1.67419E+18,Public Rack - Pittsburgh Ave & Irving Park,1,41.951911,-87.83267
1.67419E+18,Public Rack - Plainfield Ave & Irving Park Rd,2,41.952133,-87.833817
1.67419E+18,Public Rack - Prairie Ave & 47th St,1,41.809497,-87.618997
1.67419E+18,Public Rack - Prairie Ave & 85th St,2,41.739986,-87.617645
1.67419E+18,Public Rack - Princeton Ave & 43rd St,2,41.815883,-87.633718
1.67419E+18,Public Rack - Princeton Ave & 99th Pl,1,41.713311,-87.631095
1.67419E+18,Public Rack - Pulaski & 52nd,1,41.797244,-87.723377
1.67419E+18,Public Rack - Pulaski Rd & 51st Rd,1,41.800111,-87.723537
1.67419E+18,Public Rack - Racine Ave & 74th St,1,41.759439,-87.654146
1.67419E+18,Public Rack - Racine Ave & 76th,2,41.755786,-87.654054
1.67419E+18,Public Rack - Racine Ave & 83rd St,1,41.743367,-87.653661
1.67419E+18,Public Rack - Rhodes Ave & 79th St,1,41.751058,-87.611439
1.67419E+18,Public Rack - Robert Fulton Elementary School,2,41.797439,-87.668504
1.67419E+18,Public Rack - Rockwell & 111th St,2,41.691359,-87.68572
1.67419E+18,Public Rack - Rutherford Ave & Belmont Ave,1,41.938315,-87.793848
1.67419E+18,Public Rack - Sacramento Blvd & Washington Blvd,2,41.882994,-87.700036
1.67419E+18,Public Rack - Sangamon St & 79th St,1,41.750395,-87.647464
1.67419E+18,Public Rack - Sawyer Ave & 111th St,1,41.691411,-87.70229
1.67419E+18,"Public Rack - Senka ""Edward Duke"" Park",2,41.790565,-87.710992
1.67419E+18,Public Rack - South Shore High School,3,41.756444,-87.579556
1.67419E+18,Public Rack - Springfield Ave & 63rd St,1,41.778582,-87.718925
1.67419E+18,Public Rack - State St & 47th st,2,41.809085,-87.627384
1.67419E+18,Public Rack - Stewart Ave & 123rd St,5,41.670563,-87.632188
1.67419E+18,Public Rack - Stony Is Ave & 73rd St,2,41.762265,-87.585469
1.67419E+18,Public Rack - Stony Island & 95th St,1,41.72228,-87.584943
1.67419E+18,Public Rack - Stony Island Ave & 86th St,1,41.738473,-87.585851
1.67419E+18,Public Rack - Strohacker Park,2,41.79482,-87.732112
1.67419E+18,Public Rack - Talman Ave & 51st St,2,41.800908,-87.690802
1.67419E+18,Public Rack - Throop St & 58th St,3,41.788541,-87.65621
1.67419E+18,Public Rack - Torrence Ave & 98th St,2,41.717059,-87.559986
1.67419E+18,Public Rack - Trumbull Ave & 111th St,1,41.691596,-87.707397
1.67419E+18,Public Rack - Tuley (Murray) Park,2,41.73034,-87.611734
1.67419E+18,Public Rack - Vincennes Ave & 87th St,1,41.735607,-87.645345
1.67419E+18,Public Rack - Vincennes Ave & 99th St,1,41.712937,-87.653984
1.67419E+18,Public Rack - Wabash Ave & 87th St,1,41.736063,-87.622952
1.67419E+18,Public Rack - Walden Pkwy & 103rd St,1,41.706205,-87.668965
1.67419E+18,Public Rack - Wallace St & 112 St,3,41.690092,-87.637636
1.67419E+18,Public Rack - Waller Ave & Chicago Ave,1,41.894681,-87.768156
1.67419E+18,Public Rack - Washtenaw Ave & 63rd St,2,41.77924,-87.691116
1.67419E+18,Public Rack - Washtenaw Ave & Superior St,5,41.894738,-87.695204
1.67419E+18,Public Rack - Wentworth Ave & 103rd St,1,41.707257,-87.627826
1.67419E+18,Public Rack - Wentworth Ave & 79th St,1,41.750712,-87.629949
1.67419E+18,Public Rack - West Chatham Park,2,41.745834,-87.631562
1.67419E+18,Public Rack - West Lawn Park,4,41.774815,-87.728303
1.67419E+18,Public Rack - Western Ave & 100th St,2,41.711666,-87.681963
1.67419E+18,Public Rack - Western Ave & 104th St - East,2,41.704366,-87.681733
1.67419E+18,Public Rack - Western Ave & 104th St - West,2,41.703952,-87.681953
1.67419E+18,Public Rack - Western Ave & 105th St,2,41.702609,-87.681492
1.67419E+18,Public Rack - Western Ave & 106th St - East,1,41.700576,-87.681294
1.67419E+18,Public Rack - Western Ave & 111th St - NW,1,41.69197,-87.681659
1.67419E+18,Public Rack - Western Ave & 111th St - SW,2,41.69161,-87.681523
1.67419E+18,Public Rack - Western Ave & 116th St,1,41.6824,-87.681048
1.67419E+18,Public Rack - Western Ave & 79th St,1,41.750057,-87.682777
1.67419E+18,Public Rack - Western Ave & 92nd Pl,2,41.725538,-87.681968
1.67419E+18,Public Rack - Western Blvd & 49th St,1,41.80478,-87.683749
1.67419E+18,Public Rack - Western Blvd & 53rd St,1,41.796775,-87.683362
1.67419E+18,Public Rack - William Rainey Harper High School,2,41.775267,-87.669156
1.67419E+18,Public Rack - Winchester Ave & 87th St,1,41.735989,-87.672181
1.67419E+18,Public Rack - Wood St & 103rd St,1,41.706498,-87.667091
1.67419E+18,Public Rack - Yale Ave & 119th St,1,41.677795,-87.629077
1.67419E+18,Public Rack - Yates Ave & 100th St,2,41.713437,-87.564405
1.67725E+18,Public Rack - Lowe Ave & 119th St,1,41.677708,-87.638711
1.67725E+18,Public Rack - Elizabeth St & 115th St,1,41.684942,-87.65266
1.67725E+18,Public Rack - Halsted St & 111th St,1,41.691838,-87.642747
1.67725E+18,Public Rack - Green St & 103rd St,1,41.70665,-87.643422
1.67725E+18,Public Rack - East End Ave & 87th St,1,41.737054,-87.583998
1.67725E+18,Public Rack - Bishop St & 81st St,2,41.745827,-87.659849
1.67725E+18,Public Rack - Ada St & 79th St,2,41.750522,-87.657252
1.67725E+18,Public Rack - Aida Food Market,1,41.749896,-87.643693
1.67725E+18,Public Rack - Ingleside Ave & 79th St,1,41.751448,-87.601136
1.67725E+18,Public Rack - Colfax Ave & 83rd St,2,41.744818,-87.561055
1.67725E+18,Public Rack - Baker Ave & 863rd Pl,1,41.743346,-87.550582
1.67725E+18,Public Rack - Lawndale Ave & 111th St,1,41.691501,-87.71332
1.67725E+18,Public Rack - Christiana Ave & 111th St,1,41.69137,-87.704809
1.67725E+18,Public Rack - Troy & 111th St,1,41.691373,-87.700281
1.67725E+18,Public Rack - Homewood Ave & Monterey Ave,1,41.691691,-87.670161
1.67725E+18,Public Rack - Western Ave & 111th St - SE,1,41.691665,-87.681022
1.67725E+18,Public Rack - Longwood Dr & 111th St,2,41.69163,-87.671782
1.67725E+18,Public Rack - Western Ave & 118th St,1,41.678349,-87.680919
1.67725E+18,Public Rack - Hale Ave & 111th St,1,41.691801,-87.671351
1.67725E+18,Public Rack - Hoyne Ave & 110th Pl,2,41.692458,-87.674035
1.67725E+18,Public Rack - Western Ave & 106th St - West,1,41.701379,-87.681826
1.67725E+18,Public Rack - Walden Pkwy & 99th St,1,41.71397,-87.667798
1.67725E+18,Public Rack - Yates Blvd & Exchange Ave,2,41.765088,-87.565918
1.67725E+18,Public Rack - Calumet Ave & Garfield Blvd,1,41.794886,-87.617415
1.67725E+18,Public Rack - Normal Blvd & 61st Pl,2,41.782314,-87.637358
1.67725E+18,Public Rack - Wolcott Ave & 61st St,4,41.782378,-87.671719
1.67725E+18,Public Rack - Wolcott Ave & 56th St,2,41.791198,-87.671949
1.67725E+18,Public Rack - Emerald Ave & 43rd St,2,41.81643,-87.644754
1.67725E+18,Public Rack - Halsted St & 41st St,1,41.820147,-87.64568
1.67725E+18,Public Rack - Martin Luther King Dr & 44th St,2,41.814445,-87.616265
1.67725E+18,Public Rack - Laflin St & 51st St,2,41.801354,-87.662076
1.67725E+18,Public Rack - Wood St & 47th St,1,41.80864,-87.669974
1.67725E+18,Public Rack - Pullman - Planet Fitness,1,41.69782,-87.59779
1.67725E+18,Public Rack - Torrence Ave  & 106th St,1,41.702566,-87.559923
1.68353E+18,Public Rack - Prairie Ave & Garfield Blvd N,1,41.79480875,-87.61890696
1.68353E+18,Public Rack - Woodlawn Ave & 63rd St N,1,41.780621,-87.596033
1.68353E+18,Public Rack - Woodlawn Ave & 63rd St S,1,41.779484,-87.596028
1.71582E+18,Public Rack - Ewing Ave & 96th St S,1,41.720634,-87.53517
1.71582E+18,Public Rack - Kedvale Ave & 63rd St W,1,41.778761,-87.726892
1.71582E+18,Public Rack - Kenneth Ave & 63rd St E,1,41.778411,-87.733387
1.71582E+18,Public Rack - Kedzie Ave & 61st Pl W,1,41.78201,-87.7034
1.71585E+18,Public Rack - Tripp Ave & North Ave,2,41.90995395,-87.73271446
1.71585E+18,Public Rack - Homan Ave & Lake St,2,41.88474,-87.711357
1.71585E+18,Public Rack - Garfield Park Conservatory,2,41.88658,-87.716646
1.71585E+18,Public Rack - Lawndale Ave & Roosevelt,2,41.866225,-87.717918
1.71585E+18,Public Rack - Ashland Ave & 74th St,2,41.759735,-87.663736
320,Loomis St & Lexington St,19,41.872187,-87.661501
54,Ogden Ave & Chicago Ave,19,41.89636246,-87.65406127
693,Baltimore Ave & 87th St,15,41.7373356,-87.54851461
